IncidntNum,Category,DayOfWeek,Date,Time,PdDistrict,Resolution,Address,Location,PdId, latitude, longitude
160888998,ASSAULT,Tuesday,11/1/2016,1:14,CENTRAL,"ARREST, BOOKED",500 Block of BROADWAY ST,"(37.7979466732983, -122.406460643507)",1.61E+13,37.79794667,-122.4064606
160889071,ASSAULT,Tuesday,11/1/2016,2:20,NORTHERN,"ARREST, BOOKED",1200 Block of POLK ST,"(37.78798096196, -122.420231590619)",1.61E+13,37.78798096,-122.4202316
160889190,ASSAULT,Tuesday,11/1/2016,5:35,INGLESIDE,NONE,0 Block of ALPHA ST,"(37.7148175604718, -122.403272564177)",1.61E+13,37.71481756,-122.4032726
160889225,ASSAULT,Tuesday,11/1/2016,6:20,CENTRAL,"ARREST, BOOKED",1100 Block of BUSH ST,"(37.7892672343725, -122.416221156508)",1.61E+13,37.78926723,-122.4162212
160889413,ASSAULT,Tuesday,11/1/2016,7:20,NORTHERN,NONE,MCALLISTER ST / LARKIN ST,"(37.7804689268479, -122.416948565876)",1.61E+13,37.78046893,-122.4169486
160889918,ASSAULT,Tuesday,11/1/2016,11:30,BAYVIEW,NONE,1000 Block of LECONTE AV,"(37.7190331787318, -122.39800417734)",1.61E+13,37.71903318,-122.3980042
160890147,ASSAULT,Tuesday,11/1/2016,11:26,SOUTHERN,NONE,TOWNSEND ST / 5TH ST,"(37.7753329097568, -122.397207764774)",1.61E+13,37.77533291,-122.3972078
160890363,ASSAULT,Tuesday,11/1/2016,14:40,NORTHERN,NONE,1500 Block of VANNESS AV,"(37.7898764817406, -122.422404422276)",1.61E+13,37.78987648,-122.4224044
160890391,ASSAULT,Tuesday,11/1/2016,14:45,TARAVAL,NONE,100 Block of APTOS AV,"(37.7291845796038, -122.466758005159)",1.61E+13,37.72918458,-122.466758
160890404,ASSAULT,Tuesday,11/1/2016,14:50,NORTHERN,"ARREST, BOOKED",LAGUNA ST / GREENWICH ST,"(37.7995788883123, -122.430939617958)",1.61E+13,37.79957889,-122.4309396
160890498,ASSAULT,Tuesday,11/1/2016,15:53,SOUTHERN,NONE,1000 Block of MISSION ST,"(37.7800356268394, -122.409795194505)",1.61E+13,37.78003563,-122.4097952
160890498,ASSAULT,Tuesday,11/1/2016,15:53,SOUTHERN,NONE,1000 Block of MISSION ST,"(37.7800356268394, -122.409795194505)",1.61E+13,37.78003563,-122.4097952
160890539,ASSAULT,Tuesday,11/1/2016,15:53,PARK,"ARREST, BOOKED",1400 Block of 5TH AV,"(37.7614161594014, -122.461765054687)",1.61E+13,37.76141616,-122.4617651
160890636,ASSAULT,Tuesday,11/1/2016,16:13,MISSION,NONE,16TH ST / MISSION ST,"(37.7650501214668, -122.419671780296)",1.61E+13,37.76505012,-122.4196718
160890664,ASSAULT,Tuesday,11/1/2016,14:45,MISSION,NONE,300 Block of POTRERO AV,"(37.7651192951994, -122.407544906452)",1.61E+13,37.7651193,-122.4075449
160890943,ASSAULT,Tuesday,11/1/2016,17:35,TENDERLOIN,NONE,200 Block of GOLDEN GATE AV,"(37.781863316866, -122.414302052544)",1.61E+13,37.78186332,-122.4143021
160890965,ASSAULT,Tuesday,11/1/2016,16:52,TENDERLOIN,"ARREST, BOOKED",0 Block of TURK ST,"(37.7833862379382, -122.409853729941)",1.61E+13,37.78338624,-122.4098537
160891004,ASSAULT,Tuesday,11/1/2016,17:20,SOUTHERN,"ARREST, BOOKED",5TH ST / FOLSOM ST,"(37.7802655777189, -122.403390364796)",1.61E+13,37.78026558,-122.4033904
160891117,ASSAULT,Tuesday,11/1/2016,17:40,BAYVIEW,NONE,0 Block of CAMERON WY,"(37.7202869779119, -122.385879189053)",1.61E+13,37.72028698,-122.3858792
160891327,ASSAULT,Tuesday,11/1/2016,20:13,SOUTHERN,NONE,11TH ST / BRYANT ST,"(37.769411384942, -122.410932750782)",1.61E+13,37.76941138,-122.4109328
160891349,ASSAULT,Tuesday,11/1/2016,20:26,TARAVAL,"ARREST, BOOKED",1700 Block of 46TH AV,"(37.7538827389106, -122.505399804501)",1.61E+13,37.75388274,-122.5053998
160891349,ASSAULT,Tuesday,11/1/2016,20:26,TARAVAL,"ARREST, BOOKED",1700 Block of 46TH AV,"(37.7538827389106, -122.505399804501)",1.61E+13,37.75388274,-122.5053998
160891430,ASSAULT,Tuesday,11/1/2016,21:02,SOUTHERN,NONE,MARKET ST / MCALLISTER ST,"(37.7809039696758, -122.411979487494)",1.61E+13,37.78090397,-122.4119795
160891452,ASSAULT,Tuesday,11/1/2016,21:15,BAYVIEW,NONE,1100 Block of PALOU AV,"(37.7292626391341, -122.382475491131)",1.61E+13,37.72926264,-122.3824755
160891474,ASSAULT,Tuesday,11/1/2016,21:24,SOUTHERN,"ARREST, BOOKED",7TH ST / BRANNAN ST,"(37.77304964003, -122.403208907607)",1.61E+13,37.77304964,-122.4032089
160891606,ASSAULT,Tuesday,11/1/2016,23:04,PARK,"ARREST, BOOKED",1800 Block of HAIGHT ST,"(37.7693241293319, -122.452728322759)",1.61E+13,37.76932413,-122.4527283
160891640,ASSAULT,Tuesday,11/1/2016,22:15,TENDERLOIN,NONE,100 Block of EDDY ST,"(37.7841889075267, -122.410135236377)",1.61E+13,37.78418891,-122.4101352
160891753,ASSAULT,Wednesday,11/2/2016,0:06,SOUTHERN,NONE,500 Block of 5TH ST,"(37.7776242389287, -122.39998111124)",1.61E+13,37.77762424,-122.3999811
160891775,ASSAULT,Wednesday,11/2/2016,0:05,BAYVIEW,NONE,2600 Block of SAN BRUNO AV,"(37.7282055879734, -122.40390700421)",1.61E+13,37.72820559,-122.403907
160891844,ASSAULT,Wednesday,11/2/2016,0:47,RICHMOND,"ARREST, BOOKED",FULTON ST / 25TH AV,"(37.7725658462015, -122.484194946272)",1.61E+13,37.77256585,-122.4841949
160891935,ASSAULT,Wednesday,11/2/2016,1:30,MISSION,NONE,24TH ST / FOLSOM ST,"(37.7525050785758, -122.414089000708)",1.61E+13,37.75250508,-122.414089
160892024,ASSAULT,Wednesday,11/2/2016,4:30,SOUTHERN,"ARREST, BOOKED",100 Block of 6TH ST,"(37.7803875013555, -122.407877117352)",1.61E+13,37.7803875,-122.4078771
160892024,ASSAULT,Wednesday,11/2/2016,4:30,SOUTHERN,"ARREST, BOOKED",100 Block of 6TH ST,"(37.7803875013555, -122.407877117352)",1.61E+13,37.7803875,-122.4078771
160892052,ASSAULT,Wednesday,11/2/2016,5:00,TARAVAL,"ARREST, BOOKED",200 Block of MONTANA ST,"(37.716636765559, -122.461424508784)",1.61E+13,37.71663677,-122.4614245
160892284,ASSAULT,Tuesday,11/1/2016,18:22,MISSION,NONE,300 Block of SANCARLOS ST,"(37.7577669901356, -122.419832741614)",1.61E+13,37.75776699,-122.4198327
160892347,ASSAULT,Wednesday,11/2/2016,8:00,NORTHERN,NONE,1100 Block of BUCHANAN ST,"(37.7804667844899, -122.4286923384)",1.61E+13,37.78046678,-122.4286923
160892381,ASSAULT,Wednesday,11/2/2016,8:50,CENTRAL,"ARREST, BOOKED",300 Block of MONTGOMERY ST,"(37.7923930433863, -122.40260260964)",1.61E+13,37.79239304,-122.4026026
160892541,ASSAULT,Tuesday,11/1/2016,19:30,TARAVAL,"ARREST, BOOKED",1600 Block of 25TH AV,"(37.7567392559933, -122.483027657134)",1.61E+13,37.75673926,-122.4830277
160892541,ASSAULT,Tuesday,11/1/2016,19:30,TARAVAL,"ARREST, BOOKED",1600 Block of 25TH AV,"(37.7567392559933, -122.483027657134)",1.61E+13,37.75673926,-122.4830277
160892591,ASSAULT,Wednesday,11/2/2016,10:19,BAYVIEW,NONE,0 Block of CASHMERE ST,"(37.7358858148594, -122.382705072801)",1.61E+13,37.73588581,-122.3827051
160892591,ASSAULT,Wednesday,11/2/2016,10:19,BAYVIEW,NONE,0 Block of CASHMERE ST,"(37.7358858148594, -122.382705072801)",1.61E+13,37.73588581,-122.3827051
160892591,ASSAULT,Wednesday,11/2/2016,10:19,BAYVIEW,NONE,0 Block of CASHMERE ST,"(37.7358858148594, -122.382705072801)",1.61E+13,37.73588581,-122.3827051
160892751,ASSAULT,Tuesday,11/1/2016,16:00,CENTRAL,NONE,500 Block of VALLEJO ST,"(37.7988518581206, -122.407044951989)",1.61E+13,37.79885186,-122.407045
160892858,ASSAULT,Wednesday,11/2/2016,11:40,CENTRAL,"ARREST, BOOKED",300 Block of CLAY ST,"(37.7950325941141, -122.399739729147)",1.61E+13,37.79503259,-122.3997397
160892858,ASSAULT,Wednesday,11/2/2016,11:40,CENTRAL,"ARREST, BOOKED",300 Block of CLAY ST,"(37.7950325941141, -122.399739729147)",1.61E+13,37.79503259,-122.3997397
160892864,ASSAULT,Wednesday,11/2/2016,12:10,MISSION,NONE,500 Block of DOLORES ST,"(37.759419804663, -122.426036566526)",1.61E+13,37.7594198,-122.4260366
160893072,ASSAULT,Wednesday,11/2/2016,13:50,SOUTHERN,"ARREST, BOOKED",400 Block of 4TH ST,"(37.7810432179334, -122.399833846531)",1.61E+13,37.78104322,-122.3998338
160893088,ASSAULT,Wednesday,11/2/2016,13:00,BAYVIEW,NONE,KEITH ST / CARROLL AV,"(37.7249752061768, -122.393359690545)",1.61E+13,37.72497521,-122.3933597
160893179,ASSAULT,Wednesday,11/2/2016,15:12,MISSION,NONE,24TH ST / TREAT AV,"(37.7525722462226, -122.412997488068)",1.61E+13,37.75257225,-122.4129975
160893395,ASSAULT,Wednesday,11/2/2016,16:15,TARAVAL,NONE,MONTEREY BL / NORTHGATE DR,"(37.7300233378439, -122.461736679015)",1.61E+13,37.73002334,-122.4617367
160893577,ASSAULT,Tuesday,11/1/2016,18:30,CENTRAL,NONE,1600 Block of GRANT AV,"(37.8018955776903, -122.407764273463)",1.61E+13,37.80189558,-122.4077643
160893884,ASSAULT,Wednesday,11/2/2016,18:28,INGLESIDE,"ARREST, BOOKED",0 Block of VIRGINIA AV,"(37.7428517374449, -122.420967440564)",1.61E+13,37.74285174,-122.4209674
160893919,ASSAULT,Wednesday,11/2/2016,18:35,MISSION,"ARREST, BOOKED",CAPP ST / 24TH ST,"(37.7523063170181, -122.417360139477)",1.61E+13,37.75230632,-122.4173601
160893919,ASSAULT,Wednesday,11/2/2016,18:35,MISSION,"ARREST, BOOKED",CAPP ST / 24TH ST,"(37.7523063170181, -122.417360139477)",1.61E+13,37.75230632,-122.4173601
160894014,ASSAULT,Wednesday,11/2/2016,20:00,MISSION,NONE,200 Block of JERSEY ST,"(37.7507486742248, -122.430711774497)",1.61E+13,37.75074867,-122.4307118
160894133,ASSAULT,Wednesday,11/2/2016,19:00,NORTHERN,NONE,900 Block of MCALLISTER ST,"(37.7791067704679, -122.428464085513)",1.61E+13,37.77910677,-122.4284641
160894246,ASSAULT,Wednesday,11/2/2016,22:20,INGLESIDE,"ARREST, BOOKED",700 Block of SAN JOSE AV,"(37.7430731234963, -122.422851095172)",1.61E+13,37.74307312,-122.4228511
160894412,ASSAULT,Thursday,11/3/2016,0:39,MISSION,"ARREST, BOOKED",2400 Block of BRYANT ST,"(37.7551775435269, -122.409436313449)",1.61E+13,37.75517754,-122.4094363
160894440,ASSAULT,Thursday,11/3/2016,1:10,MISSION,NONE,3200 Block of 23RD ST,"(37.7539896835859, -122.416964922852)",1.61E+13,37.75398968,-122.4169649
160894456,ASSAULT,Thursday,11/3/2016,2:05,CENTRAL,NONE,LARKIN ST / SUTTER ST,"(37.7879652569797, -122.418467747931)",1.61E+13,37.78796526,-122.4184677
160894547,ASSAULT,Thursday,11/3/2016,2:48,BAYVIEW,NONE,DAKOTA ST / 23RD ST,"(37.7548598828425, -122.396716088144)",1.61E+13,37.75485988,-122.3967161
160894575,ASSAULT,Thursday,11/3/2016,3:00,RICHMOND,NONE,400 Block of 9TH AV,"(37.7798972131323, -122.467350448491)",1.61E+13,37.77989721,-122.4673504
160894616,ASSAULT,Thursday,11/3/2016,1:30,CENTRAL,"ARREST, BOOKED",900 Block of MASON ST,"(37.7923158747647, -122.410845624227)",1.61E+13,37.79231587,-122.4108456
160894616,ASSAULT,Thursday,11/3/2016,1:30,CENTRAL,"ARREST, BOOKED",900 Block of MASON ST,"(37.7923158747647, -122.410845624227)",1.61E+13,37.79231587,-122.4108456
160894666,ASSAULT,Thursday,11/3/2016,5:53,SOUTHERN,NONE,100 Block of FREMONT ST,"(37.7894863287687, -122.395368983007)",1.61E+13,37.78948633,-122.395369
160894688,ASSAULT,Thursday,11/3/2016,0:54,NORTHERN,NONE,1500 Block of EDDY ST,"(37.7813758100318, -122.433177816267)",1.61E+13,37.78137581,-122.4331778
160895078,ASSAULT,Thursday,11/3/2016,8:48,SOUTHERN,NONE,900 Block of MISSION ST,"(37.7823859229171, -122.406819073383)",1.61E+13,37.78238592,-122.4068191
160895147,ASSAULT,Thursday,11/3/2016,9:30,RICHMOND,"ARREST, BOOKED",700 Block of GREAT HY,"(37.7739918429694, -122.511079116635)",1.61E+13,37.77399184,-122.5110791
160895454,ASSAULT,Thursday,11/3/2016,11:26,SOUTHERN,"ARREST, BOOKED",500 Block of 9TH ST,"(37.7706967930865, -122.407702149718)",1.61E+13,37.77069679,-122.4077021
160895642,ASSAULT,Thursday,11/3/2016,13:18,CENTRAL,NONE,VANNESS AV / NORTHPOINT ST,"(37.8050769933248, -122.425300930134)",1.61E+13,37.80507699,-122.4253009
160895711,ASSAULT,Thursday,11/3/2016,13:30,INGLESIDE,JUVENILE BOOKED,BRAZIL AV / ATHENS ST,"(37.7216346608384, -122.428430536851)",1.61E+13,37.72163466,-122.4284305
160895880,ASSAULT,Thursday,11/3/2016,13:30,BAYVIEW,NONE,INGERSON AV / 3RD ST,"(37.7209837534751, -122.396273518908)",1.61E+13,37.72098375,-122.3962735
160895915,ASSAULT,Thursday,11/3/2016,14:27,MISSION,"ARREST, CITED",1000 Block of POTRERO AV,"(37.7564864109309, -122.406539115148)",1.61E+13,37.75648641,-122.4065391
160896151,ASSAULT,Thursday,11/3/2016,15:52,SOUTHERN,"ARREST, BOOKED",400 Block of 3RD ST,"(37.7815744448753, -122.396062368554)",1.61E+13,37.78157444,-122.3960624
160896167,ASSAULT,Thursday,11/3/2016,15:45,TARAVAL,NONE,1400 Block of WAWONA ST,"(37.7374735383053, -122.482221145518)",1.61E+13,37.73747354,-122.4822211
160896214,ASSAULT,Thursday,11/3/2016,15:01,TARAVAL,"ARREST, BOOKED",TARAVAL ST / 28TH AV,"(37.7433832599302, -122.46807388719)",1.61E+13,37.74338326,-122.4680739
160896377,ASSAULT,Thursday,11/3/2016,16:32,TENDERLOIN,"ARREST, BOOKED",0 Block of MASON ST,"(37.7837998723601, -122.409268441444)",1.61E+13,37.78379987,-122.4092684
160896662,ASSAULT,Thursday,11/3/2016,18:46,SOUTHERN,NONE,DUBOCE AV / STEVENSON ST,"(37.7699166801439, -122.421586602869)",1.61E+13,37.76991668,-122.4215866
160896844,ASSAULT,Thursday,11/3/2016,20:02,BAYVIEW,NONE,NEWCOMB AV / LANE ST,"(37.7341714275463, -122.387911252085)",1.61E+13,37.73417143,-122.3879113
160896872,ASSAULT,Thursday,11/3/2016,19:19,TENDERLOIN,"ARREST, BOOKED",400 Block of OFARRELL ST,"(37.7857850619382, -122.412563218508)",1.61E+13,37.78578506,-122.4125632
160896894,ASSAULT,Thursday,11/3/2016,20:20,BAYVIEW,"ARREST, BOOKED",1700 Block of QUESADA AV,"(37.7339177755227, -122.392235600843)",1.61E+13,37.73391778,-122.3922356
160896894,ASSAULT,Thursday,11/3/2016,20:20,BAYVIEW,"ARREST, BOOKED",1700 Block of QUESADA AV,"(37.7339177755227, -122.392235600843)",1.61E+13,37.73391778,-122.3922356
160896941,ASSAULT,Thursday,11/3/2016,20:25,BAYVIEW,"ARREST, BOOKED",1000 Block of LECONTE AV,"(37.7190331787318, -122.39800417734)",1.61E+13,37.71903318,-122.3980042
160896979,ASSAULT,Thursday,11/3/2016,21:00,INGLESIDE,NONE,GENEVA AV / DELANO AV,"(37.7200882952758, -122.44512779465)",1.61E+13,37.7200883,-122.4451278
160896979,ASSAULT,Thursday,11/3/2016,21:00,INGLESIDE,NONE,GENEVA AV / DELANO AV,"(37.7200882952758, -122.44512779465)",1.61E+13,37.7200883,-122.4451278
160897109,ASSAULT,Thursday,11/3/2016,21:48,NORTHERN,"ARREST, BOOKED",GROVE ST / LARKIN ST,"(37.7786591541508, -122.416583456133)",1.61E+13,37.77865915,-122.4165835
160897115,ASSAULT,Thursday,11/3/2016,0:10,INGLESIDE,NONE,100 Block of COLLEGE AV,"(37.735348450768, -122.426495413982)",1.61E+13,37.73534845,-122.4264954
160897159,ASSAULT,Thursday,11/3/2016,21:03,CENTRAL,NONE,500 Block of JEFFERSON ST,"(37.8075765542504, -122.421302237267)",1.61E+13,37.80757655,-122.4213022
160897193,ASSAULT,Thursday,11/3/2016,22:15,SOUTHERN,"ARREST, BOOKED",MISSION ST / 10TH ST,"(37.7752721501379, -122.41591119887)",1.61E+13,37.77527215,-122.4159112
160897206,ASSAULT,Thursday,11/3/2016,22:15,TENDERLOIN,NONE,300 Block of ELLIS ST,"(37.7850226622786, -122.411987643595)",1.61E+13,37.78502266,-122.4119876
160897466,ASSAULT,Friday,11/4/2016,0:02,MISSION,"ARREST, BOOKED",16TH ST / SHOTWELL ST,"(37.7652491154383, -122.416389710283)",1.61E+13,37.76524912,-122.4163897
160897466,ASSAULT,Friday,11/4/2016,0:02,MISSION,"ARREST, BOOKED",16TH ST / SHOTWELL ST,"(37.7652491154383, -122.416389710283)",1.61E+13,37.76524912,-122.4163897
160897472,ASSAULT,Friday,11/4/2016,23:30,MISSION,"ARREST, BOOKED",4000 Block of 18TH ST,"(37.7608670671665, -122.434446928667)",1.61E+13,37.76086707,-122.4344469
160897472,ASSAULT,Friday,11/4/2016,23:30,MISSION,"ARREST, BOOKED",4000 Block of 18TH ST,"(37.7608670671665, -122.434446928667)",1.61E+13,37.76086707,-122.4344469
160897557,ASSAULT,Friday,11/4/2016,1:10,NORTHERN,NONE,LARKIN ST / GROVE ST,"(37.7786591541508, -122.416583456133)",1.61E+13,37.77865915,-122.4165835
160897698,ASSAULT,Friday,11/4/2016,3:15,BAYVIEW,NONE,0 Block of CRANE ST,"(37.7223874981459, -122.399608474442)",1.61E+13,37.7223875,-122.3996085
160897701,ASSAULT,Friday,11/4/2016,12:55,PARK,NONE,600 Block of DIVISADERO ST,"(37.7754834563836, -122.437780560713)",1.61E+13,37.77548346,-122.4377806
160897751,ASSAULT,Friday,11/4/2016,4:57,SOUTHERN,NONE,800 Block of BRYANT ST,"(37.775420706711, -122.403404791479)",1.61E+13,37.77542071,-122.4034048
160897820,ASSAULT,Friday,11/4/2016,6:00,BAYVIEW,NONE,16TH ST / DEHARO ST,"(37.7661321731435, -122.401723696512)",1.61E+13,37.76613217,-122.4017237
160898050,ASSAULT,Friday,11/4/2016,8:31,INGLESIDE,NONE,MISSION ST / HIGHLAND AV,"(37.7374051783442, -122.424042254192)",1.61E+13,37.73740518,-122.4240423
160898254,ASSAULT,Friday,11/4/2016,6:00,TARAVAL,"ARREST, BOOKED",200 Block of LOBOS ST,"(37.714950853585, -122.460861739121)",1.61E+13,37.71495085,-122.4608617
160898282,ASSAULT,Friday,11/4/2016,10:40,NORTHERN,NONE,1400 Block of WEBSTER ST,"(37.7840280157969, -122.431240435829)",1.61E+13,37.78402802,-122.4312404
160898442,ASSAULT,Friday,11/4/2016,11:05,INGLESIDE,NONE,5000 Block of MISSION ST,"(37.7174580136719, -122.440388229194)",1.61E+13,37.71745801,-122.4403882
160898470,ASSAULT,Friday,11/4/2016,7:25,BAYVIEW,NONE,BACON ST / UNIVERSITY ST,"(37.725054102525, -122.413468498805)",1.61E+13,37.7250541,-122.4134685
160898583,ASSAULT,Friday,11/4/2016,12:03,RICHMOND,"ARREST, BOOKED",GEARY BL / FUNSTON AV,"(37.7806799488656, -122.471775662786)",1.61E+13,37.78067995,-122.4717757
160898599,ASSAULT,Friday,11/4/2016,9:34,MISSION,"ARREST, BOOKED",2300 Block of 16TH ST,"(37.7657184395282, -122.409529913278)",1.61E+13,37.76571844,-122.4095299
160899014,ASSAULT,Friday,11/4/2016,14:20,TENDERLOIN,"ARREST, BOOKED",EDDY ST / MASON ST,"(37.7843478513151, -122.409313111431)",1.61E+13,37.78434785,-122.4093131
160899280,ASSAULT,Friday,11/4/2016,15:50,TARAVAL,"ARREST, BOOKED",1400 Block of WAWONA ST,"(37.7374735383053, -122.482221145518)",1.61E+13,37.73747354,-122.4822211
160899296,ASSAULT,Friday,11/4/2016,15:35,NORTHERN,"ARREST, BOOKED",300 Block of FULTON ST,"(37.7787958771466, -122.422536478306)",1.61E+13,37.77879588,-122.4225365
160899434,ASSAULT,Friday,11/4/2016,16:45,NORTHERN,"ARREST, BOOKED",LARKIN ST / GROVE ST,"(37.7786591541508, -122.416583456133)",1.61E+13,37.77865915,-122.4165835
160899434,ASSAULT,Friday,11/4/2016,16:45,NORTHERN,"ARREST, BOOKED",LARKIN ST / GROVE ST,"(37.7786591541508, -122.416583456133)",1.61E+13,37.77865915,-122.4165835
160899581,ASSAULT,Friday,11/4/2016,16:59,SOUTHERN,"ARREST, BOOKED",800 Block of BRYANT ST,"(37.775420706711, -122.403404791479)",1.61E+13,37.77542071,-122.4034048
160899581,ASSAULT,Friday,11/4/2016,16:59,SOUTHERN,"ARREST, BOOKED",800 Block of BRYANT ST,"(37.775420706711, -122.403404791479)",1.61E+13,37.77542071,-122.4034048
160899694,ASSAULT,Friday,11/4/2016,17:30,MISSION,NONE,2300 Block of 16TH ST,"(37.7657184395282, -122.409529913278)",1.61E+13,37.76571844,-122.4095299
160899804,ASSAULT,Friday,11/4/2016,18:10,MISSION,NONE,2100 Block of MISSION ST,"(37.7622701739914, -122.419470488515)",1.61E+13,37.76227017,-122.4194705
160899939,ASSAULT,Friday,11/4/2016,18:25,PARK,NONE,0 Block of CASTRO ST,"(37.7681694346175, -122.435637436721)",1.61E+13,37.76816943,-122.4356374
160899951,ASSAULT,Thursday,11/3/2016,18:20,TARAVAL,"ARREST, BOOKED",1500 Block of JUDAH ST,"(37.7616839282748, -122.478613197686)",1.61E+13,37.76168393,-122.4786132
160900194,ASSAULT,Friday,11/4/2016,20:19,MISSION,NONE,3000 Block of 16TH ST,"(37.764910844226, -122.421082850193)",1.61E+13,37.76491084,-122.4210829
160900194,ASSAULT,Friday,11/4/2016,20:19,MISSION,NONE,3000 Block of 16TH ST,"(37.764910844226, -122.421082850193)",1.61E+13,37.76491084,-122.4210829
160900207,ASSAULT,Friday,11/4/2016,19:42,TARAVAL,"ARREST, BOOKED",2900 Block of 26TH AV,"(37.7334100417234, -122.481874376271)",1.61E+13,37.73341004,-122.4818744
160900207,ASSAULT,Friday,11/4/2016,19:42,TARAVAL,"ARREST, BOOKED",2900 Block of 26TH AV,"(37.7334100417234, -122.481874376271)",1.61E+13,37.73341004,-122.4818744
160900508,ASSAULT,Friday,11/4/2016,22:24,BAYVIEW,NONE,SAN BRUNO AV / SILVER AV,"(37.732438864982, -122.405610268222)",1.61E+13,37.73243886,-122.4056103
160900520,ASSAULT,Saturday,11/5/2016,23:15,CENTRAL,NONE,SUTTER ST / JONES ST,"(37.7885973839627, -122.4135447894)",1.61E+13,37.78859738,-122.4135448
160900570,ASSAULT,Friday,11/4/2016,23:35,CENTRAL,NONE,500 Block of JACKSON ST,"(37.7964121687875, -122.403980132448)",1.61E+13,37.79641217,-122.4039801
160900627,ASSAULT,Friday,11/4/2016,23:58,BAYVIEW,NONE,200 Block of WESTPOINT RD,"(37.7352990706774, -122.378928955993)",1.61E+13,37.73529907,-122.378929
160900655,ASSAULT,Friday,11/4/2016,23:58,MISSION,"ARREST, BOOKED",1000 Block of DOLORES ST,"(37.7526134751532, -122.425378994759)",1.61E+13,37.75261348,-122.425379
160900661,ASSAULT,Saturday,11/5/2016,0:28,BAYVIEW,NONE,0 Block of LOOMIS ST,"(37.7432071323595, -122.403890913943)",1.61E+13,37.74320713,-122.4038909
160900752,ASSAULT,Saturday,11/5/2016,1:30,MISSION,NONE,17TH ST / ABBEY ST,"(37.7629719845033, -122.427168062792)",1.61E+13,37.76297198,-122.4271681
160900752,ASSAULT,Saturday,11/5/2016,1:30,MISSION,NONE,17TH ST / ABBEY ST,"(37.7629719845033, -122.427168062792)",1.61E+13,37.76297198,-122.4271681
160900774,ASSAULT,Saturday,11/5/2016,2:05,CENTRAL,NONE,500 Block of GREEN ST,"(37.7996867434054, -122.407945033235)",1.61E+13,37.79968674,-122.407945
160900780,ASSAULT,Saturday,11/5/2016,1:55,MISSION,NONE,LEXINGTON ST / 20TH ST,"(37.7585455359264, -122.420507073662)",1.61E+13,37.75854554,-122.4205071
160900780,ASSAULT,Saturday,11/5/2016,1:55,MISSION,NONE,LEXINGTON ST / 20TH ST,"(37.7585455359264, -122.420507073662)",1.61E+13,37.75854554,-122.4205071
160900837,ASSAULT,Saturday,11/5/2016,2:30,SOUTHERN,NONE,700 Block of HARRISON ST,"(37.7821372491619, -122.397814506334)",1.61E+13,37.78213725,-122.3978145
160900956,ASSAULT,Saturday,11/5/2016,2:15,SOUTHERN,NONE,300 Block of 12TH ST,"(37.7704308714704, -122.414080613737)",1.61E+13,37.77043087,-122.4140806
160901136,ASSAULT,Saturday,11/5/2016,8:27,MISSION,NONE,POTRERO AV / ALAMEDA ST,"(37.7683548732689, -122.407815467597)",1.61E+13,37.76835487,-122.4078155
160901261,ASSAULT,Saturday,11/5/2016,8:46,NORTHERN,"ARREST, BOOKED",WILLOW ST / POLK ST,"(37.7835680535207, -122.419274801449)",1.61E+13,37.78356805,-122.4192748
160901261,ASSAULT,Saturday,11/5/2016,8:46,NORTHERN,"ARREST, BOOKED",WILLOW ST / POLK ST,"(37.7835680535207, -122.419274801449)",1.61E+13,37.78356805,-122.4192748
160901324,ASSAULT,Saturday,11/5/2016,9:50,BAYVIEW,NONE,3RD ST / 25TH ST,"(37.7528363805294, -122.387759351288)",1.61E+13,37.75283638,-122.3877594
160901380,ASSAULT,Saturday,11/5/2016,9:52,TARAVAL,"ARREST, BOOKED",200 Block of SAGAMORE ST,"(37.7113249681306, -122.460564524171)",1.61E+13,37.71132497,-122.4605645
160901562,ASSAULT,Saturday,11/5/2016,11:10,SOUTHERN,NONE,1400 Block of MARKET ST,"(37.775898446204, -122.418480564808)",1.61E+13,37.77589845,-122.4184806
160901603,ASSAULT,Saturday,11/5/2016,11:50,INGLESIDE,NONE,500 Block of LAIDLEY ST,"(37.7354953184002, -122.431596849096)",1.61E+13,37.73549532,-122.4315968
160901653,ASSAULT,Saturday,11/5/2016,11:31,SOUTHERN,NONE,800 Block of BRYANT ST,"(37.775420706711, -122.403404791479)",1.61E+13,37.77542071,-122.4034048
160901766,ASSAULT,Saturday,11/5/2016,13:12,SOUTHERN,NONE,7TH ST / MINNA ST,"(37.7787841486033, -122.410405602135)",1.61E+13,37.77878415,-122.4104056
160901807,ASSAULT,Saturday,11/5/2016,6:00,TENDERLOIN,NONE,LEAVENWORTH ST / ELLIS ST,"(37.7846576329256, -122.414433155063)",1.61E+13,37.78465763,-122.4144332
160902021,ASSAULT,Saturday,11/5/2016,14:36,MISSION,NONE,16TH ST / MISSION ST,"(37.7650501214668, -122.419671780296)",1.61E+13,37.76505012,-122.4196718
160902065,ASSAULT,Saturday,11/5/2016,15:00,TENDERLOIN,"ARREST, BOOKED",100 Block of EDDY ST,"(37.7841889075267, -122.410135236377)",1.61E+13,37.78418891,-122.4101352
160902065,ASSAULT,Saturday,11/5/2016,15:00,TENDERLOIN,"ARREST, BOOKED",100 Block of EDDY ST,"(37.7841889075267, -122.410135236377)",1.61E+13,37.78418891,-122.4101352
160902190,ASSAULT,Saturday,11/5/2016,15:40,BAYVIEW,"ARREST, BOOKED",1400 Block of THOMAS AV,"(37.7287892888548, -122.388542831272)",1.61E+13,37.72878929,-122.3885428
160902190,ASSAULT,Saturday,11/5/2016,15:40,BAYVIEW,"ARREST, BOOKED",1400 Block of THOMAS AV,"(37.7287892888548, -122.388542831272)",1.61E+13,37.72878929,-122.3885428
160902203,ASSAULT,Saturday,11/5/2016,15:20,SOUTHERN,NONE,11TH ST / FOLSOM ST,"(37.7718636177154, -122.41402726269)",1.61E+13,37.77186362,-122.4140273
160902225,ASSAULT,Saturday,11/5/2016,13:46,NORTHERN,NONE,2200 Block of FILLMORE ST,"(37.7902911264768, -122.434048464904)",1.61E+13,37.79029113,-122.4340485
160902281,ASSAULT,Saturday,11/5/2016,11:55,NORTHERN,NONE,1700 Block of VALLEJO ST,"(37.7963205403, -122.426076101692)",1.61E+13,37.79632054,-122.4260761
160902322,ASSAULT,Saturday,11/5/2016,16:19,MISSION,"ARREST, BOOKED",1800 Block of MISSION ST,"(37.7674625261825, -122.419832890144)",1.61E+13,37.76746253,-122.4198329
160902457,ASSAULT,Saturday,11/5/2016,17:04,BAYVIEW,NONE,JENNINGS ST / VANDYKE AV,"(37.7270446788877, -122.388674368529)",1.61E+13,37.72704468,-122.3886744
160902689,ASSAULT,Saturday,11/5/2016,18:25,MISSION,"ARREST, BOOKED",3900 Block of 20TH ST,"(37.7579656087872, -122.429175374343)",1.61E+13,37.75796561,-122.4291754
160902720,ASSAULT,Saturday,11/5/2016,18:28,TENDERLOIN,"ARREST, BOOKED",300 Block of EDDY ST,"(37.7838365565348, -122.413790972781)",1.61E+13,37.78383656,-122.413791
160902811,ASSAULT,Saturday,11/5/2016,18:58,BAYVIEW,NONE,100 Block of CAMERON WY,"(37.7208692407802, -122.387247607197)",1.61E+13,37.72086924,-122.3872476
160902849,ASSAULT,Friday,11/4/2016,17:00,SOUTHERN,NONE,6TH ST / MINNA ST,"(37.7805345385278, -122.408162953857)",1.61E+13,37.78053454,-122.408163
160902855,ASSAULT,Saturday,11/5/2016,19:32,MISSION,NONE,24TH ST / POTRERO AV,"(37.7530042877223, -122.406338412685)",1.61E+13,37.75300429,-122.4063384
160902974,ASSAULT,Saturday,11/5/2016,20:15,TENDERLOIN,"ARREST, BOOKED",0 Block of MCALLISTER ST,"(37.7811192121542, -122.412596970637)",1.61E+13,37.78111921,-122.412597
160903110,ASSAULT,Saturday,11/5/2016,22:04,TENDERLOIN,NONE,0 Block of MCALLISTER ST,"(37.7810130602185, -122.413434938269)",1.61E+13,37.78101306,-122.4134349
160903126,ASSAULT,Saturday,11/5/2016,22:15,MISSION,"ARREST, BOOKED",1000 Block of POTRERO AV,"(37.7564864109309, -122.406539115148)",1.61E+13,37.75648641,-122.4065391
160903198,ASSAULT,Saturday,11/5/2016,22:40,INGLESIDE,"ARREST, BOOKED",100 Block of DESMOND ST,"(37.7098709643339, -122.405561964925)",1.61E+13,37.70987096,-122.405562
160903198,ASSAULT,Saturday,11/5/2016,22:40,INGLESIDE,"ARREST, BOOKED",100 Block of DESMOND ST,"(37.7098709643339, -122.405561964925)",1.61E+13,37.70987096,-122.405562
160903267,ASSAULT,Saturday,11/5/2016,23:25,MISSION,NONE,2300 Block of MISSION ST,"(37.7594227506297, -122.419058868103)",1.61E+13,37.75942275,-122.4190589
160903320,ASSAULT,Sunday,11/6/2016,0:40,NORTHERN,NONE,1700 Block of POST ST,"(37.7855207172313, -122.430600096373)",1.61E+13,37.78552072,-122.4306001
160903370,ASSAULT,Sunday,11/6/2016,0:56,SOUTHERN,NONE,400 Block of JESSIE ST,"(37.7820325646934, -122.408534383763)",1.61E+13,37.78203256,-122.4085344
160903392,ASSAULT,Sunday,11/6/2016,1:16,CENTRAL,"ARREST, BOOKED",400 Block of POWELL ST,"(37.7887772719153, -122.408431861057)",1.61E+13,37.78877727,-122.4084319
160903405,ASSAULT,Sunday,11/6/2016,1:34,SOUTHERN,NONE,0 Block of 6TH ST,"(37.7812116507663, -122.408913229808)",1.61E+13,37.78121165,-122.4089132
160903427,ASSAULT,Sunday,11/6/2016,1:40,SOUTHERN,NONE,700 Block of HARRISON ST,"(37.7821372491619, -122.397814506334)",1.61E+13,37.78213725,-122.3978145
160903524,ASSAULT,Sunday,11/6/2016,1:15,SOUTHERN,NONE,200 Block of FOLSOM ST,"(37.7890603555993, -122.392347671978)",1.61E+13,37.78906036,-122.3923477
160903574,ASSAULT,Saturday,11/5/2016,8:00,SOUTHERN,"ARREST, BOOKED",800 Block of BRYANT ST,"(37.775420706711, -122.403404791479)",1.61E+13,37.77542071,-122.4034048
160903574,ASSAULT,Saturday,11/5/2016,8:00,SOUTHERN,"ARREST, BOOKED",800 Block of BRYANT ST,"(37.775420706711, -122.403404791479)",1.61E+13,37.77542071,-122.4034048
160903671,ASSAULT,Sunday,11/6/2016,3:30,MISSION,"ARREST, BOOKED",3100 Block of 26TH ST,"(37.7492981058755, -122.412961239353)",1.61E+13,37.74929811,-122.4129612
160903756,ASSAULT,Sunday,11/6/2016,7:19,SOUTHERN,NONE,300 Block of LANGTON ST,"(37.7735939535174, -122.404862572616)",1.61E+13,37.77359395,-122.4048626
160903790,ASSAULT,Sunday,11/6/2016,7:19,MISSION,"ARREST, BOOKED",POTRERO AV / ALAMEDA ST,"(37.7683548732689, -122.407815467597)",1.61E+13,37.76835487,-122.4078155
160903875,ASSAULT,Saturday,11/5/2016,12:00,INGLESIDE,NONE,MISSION ST / CORTLAND AV,"(37.7410287442117, -122.422842376051)",1.61E+13,37.74102874,-122.4228424
160903966,ASSAULT,Sunday,11/6/2016,2:30,RICHMOND,NONE,2700 Block of PINE ST,"(37.7869501282366, -122.441087799449)",1.61E+13,37.78695013,-122.4410878
160904293,ASSAULT,Sunday,11/6/2016,11:00,BAYVIEW,NONE,LANE ST / OAKDALE AV,"(37.7335359662276, -122.388483091972)",1.61E+13,37.73353597,-122.3884831
160904403,ASSAULT,Sunday,11/6/2016,11:44,MISSION,NONE,300 Block of VALENCIA ST,"(37.76701047078, -122.422020137013)",1.61E+13,37.76701047,-122.4220201
160904522,ASSAULT,Sunday,11/6/2016,12:38,BAYVIEW,"ARREST, BOOKED",1300 Block of QUESADA AV,"(37.729694047172, -122.384900862378)",1.61E+13,37.72969405,-122.3849009
160904572,ASSAULT,Sunday,11/6/2016,6:30,RICHMOND,NONE,0 Block of FUNSTON AV,"(37.786490510641, -122.472127294583)",1.61E+13,37.78649051,-122.4721273
160904594,ASSAULT,Sunday,11/6/2016,12:32,INGLESIDE,"ARREST, BOOKED",BACHE ST / BENTON AV,"(37.7339506417631, -122.417571386091)",1.61E+13,37.73395064,-122.4175714
160904679,ASSAULT,Sunday,11/6/2016,12:10,MISSION,"ARREST, BOOKED",1900 Block of MISSION ST,"(37.7658510977435, -122.41967661615)",1.61E+13,37.7658511,-122.4196766
160904679,ASSAULT,Sunday,11/6/2016,12:10,MISSION,"ARREST, BOOKED",1900 Block of MISSION ST,"(37.7658510977435, -122.41967661615)",1.61E+13,37.7658511,-122.4196766
160904867,ASSAULT,Sunday,11/6/2016,13:30,SOUTHERN,"ARREST, BOOKED",100 Block of 6TH ST,"(37.7807008318778, -122.408466556173)",1.61E+13,37.78070083,-122.4084666
160904873,ASSAULT,Sunday,11/6/2016,13:50,NORTHERN,NONE,100 Block of LARKIN ST,"(37.7791387543353, -122.416607695115)",1.61E+13,37.77913875,-122.4166077
160904964,ASSAULT,Saturday,11/5/2016,2:00,MISSION,NONE,2700 Block of MISSION ST,"(37.7530267515876, -122.41844919178)",1.61E+13,37.75302675,-122.4184492
160905081,ASSAULT,Sunday,11/6/2016,1:00,NORTHERN,NONE,3100 Block of FILLMORE ST,"(37.7987282178823, -122.43575101831)",1.61E+13,37.79872822,-122.435751
160905097,ASSAULT,Thursday,11/3/2016,15:00,TARAVAL,NONE,100 Block of APTOS AV,"(37.7291845796038, -122.466758005159)",1.61E+13,37.72918458,-122.466758
160905291,ASSAULT,Sunday,11/6/2016,0:01,BAYVIEW,NONE,1800 Block of PALOU AV,"(37.736888141479, -122.396161114928)",1.61E+13,37.73688814,-122.3961611
160905376,ASSAULT,Sunday,11/6/2016,17:00,NORTHERN,NONE,700 Block of ELLIS ST,"(37.7841847091303, -122.418562097105)",1.61E+13,37.78418471,-122.4185621
160905376,ASSAULT,Sunday,11/6/2016,17:00,NORTHERN,NONE,700 Block of ELLIS ST,"(37.7841847091303, -122.418562097105)",1.61E+13,37.78418471,-122.4185621
160905382,ASSAULT,Sunday,11/6/2016,17:15,CENTRAL,"ARREST, BOOKED",600 Block of WASHINGTON ST,"(37.7954815531939, -122.404163588243)",1.61E+13,37.79548155,-122.4041636
160905451,ASSAULT,Sunday,11/6/2016,15:30,SOUTHERN,"ARREST, BOOKED",800 Block of HOWARD ST,"(37.7823235897616, -122.403793259489)",1.61E+13,37.78232359,-122.4037933
160905514,ASSAULT,Sunday,11/6/2016,1:30,MISSION,NONE,3400 Block of 19TH ST,"(37.7601560806744, -122.419606505703)",1.61E+13,37.76015608,-122.4196065
160905605,ASSAULT,Sunday,11/6/2016,18:04,CENTRAL,"ARREST, BOOKED",PINE ST / TOUCHARD ST,"(37.7903612378585, -122.414708271797)",1.61E+13,37.79036124,-122.4147083
160905893,ASSAULT,Sunday,11/6/2016,20:26,NORTHERN,NONE,2400 Block of SACRAMENTO ST,"(37.7898100005704, -122.433800051784)",1.61E+13,37.78981,-122.4338001
160906023,ASSAULT,Sunday,11/6/2016,22:31,SOUTHERN,NONE,6TH ST / NATOMA ST,"(37.7801630691196, -122.407693108529)",1.61E+13,37.78016307,-122.4076931
160906073,ASSAULT,Tuesday,11/1/2016,23:10,SOUTHERN,NONE,0 Block of 3RD ST,"(37.7868009028384, -122.402835528142)",1.61E+13,37.7868009,-122.4028355
160906089,ASSAULT,Sunday,11/6/2016,23:00,TENDERLOIN,NONE,200 Block of EDDY ST,"(37.7840890366868, -122.411800134753)",1.61E+13,37.78408904,-122.4118001
160906095,ASSAULT,Sunday,11/6/2016,22:54,MISSION,NONE,500 Block of SOUTH VAN NESS AV,"(37.764357751686, -122.41747701285)",1.61E+13,37.76435775,-122.417477
160906108,ASSAULT,Sunday,11/6/2016,23:05,TENDERLOIN,NONE,200 Block of LEAVENWORTH ST,"(37.7832593295025, -122.414217804322)",1.61E+13,37.78325933,-122.4142178
160906158,ASSAULT,Sunday,11/6/2016,23:00,CENTRAL,"ARREST, BOOKED",600 Block of UNION ST,"(37.8003260482415, -122.40968720575)",1.61E+13,37.80032605,-122.4096872
160906158,ASSAULT,Sunday,11/6/2016,23:00,CENTRAL,"ARREST, BOOKED",600 Block of UNION ST,"(37.8003260482415, -122.40968720575)",1.61E+13,37.80032605,-122.4096872
160906261,ASSAULT,Saturday,11/5/2016,2:30,CENTRAL,NONE,400 Block of BROADWAY ST,"(37.7981164818887, -122.404260458632)",1.61E+13,37.79811648,-122.4042605
160906368,ASSAULT,Monday,11/7/2016,5:00,SOUTHERN,"ARREST, BOOKED",16TH ST / VERMONT ST,"(37.7659589563587, -122.404625868234)",1.61E+13,37.76595896,-122.4046259
160906954,ASSAULT,Friday,11/4/2016,11:00,NORTHERN,NONE,800 Block of OFARRELL ST,"(37.785007503993, -122.418729600557)",1.61E+13,37.7850075,-122.4187296
160907178,ASSAULT,Monday,11/7/2016,11:59,NORTHERN,NONE,LARKIN ST / MCALLISTER ST,"(37.7804689268479, -122.416948565876)",1.61E+13,37.78046893,-122.4169486
160907178,ASSAULT,Monday,11/7/2016,11:59,NORTHERN,NONE,LARKIN ST / MCALLISTER ST,"(37.7804689268479, -122.416948565876)",1.61E+13,37.78046893,-122.4169486
160907231,ASSAULT,Monday,11/7/2016,9:30,INGLESIDE,NONE,0 Block of EASTWOOD DR,"(37.7269140843713, -122.457254651092)",1.61E+13,37.72691408,-122.4572547
160907231,ASSAULT,Monday,11/7/2016,9:30,INGLESIDE,NONE,0 Block of EASTWOOD DR,"(37.7269140843713, -122.457254651092)",1.61E+13,37.72691408,-122.4572547
160907350,ASSAULT,Monday,11/7/2016,10:00,MISSION,NONE,600 Block of FLORIDA ST,"(37.7610475742041, -122.411093822635)",1.61E+13,37.76104757,-122.4110938
160907623,ASSAULT,Sunday,11/6/2016,15:00,TENDERLOIN,NONE,300 Block of TURK ST,"(37.7827419623926, -122.414900544562)",1.61E+13,37.78274196,-122.4149005
160907883,ASSAULT,Monday,11/7/2016,13:00,MISSION,"ARREST, BOOKED",2500 Block of MISSION ST,"(37.7562166627216, -122.418891810986)",1.61E+13,37.75621666,-122.4188918
160907918,ASSAULT,Monday,11/7/2016,14:51,SOUTHERN,"ARREST, BOOKED",1500 Block of MARKET ST,"(37.7748226184309, -122.419842305148)",1.61E+13,37.77482262,-122.4198423
160907980,ASSAULT,Monday,11/7/2016,15:36,NORTHERN,"ARREST, BOOKED",500 Block of FELL ST,"(37.775364687122, -122.42690225876)",1.61E+13,37.77536469,-122.4269023
160908198,ASSAULT,Monday,11/7/2016,16:30,NORTHERN,NONE,2700 Block of LOMBARD ST,"(37.7984867747515, -122.446640402477)",1.61E+13,37.79848677,-122.4466404
160908295,ASSAULT,Wednesday,11/2/2016,13:12,BAYVIEW,NONE,300 Block of HAMILTON ST,"(37.7266552977576, -122.409835579883)",1.61E+13,37.7266553,-122.4098356
160908308,ASSAULT,Wednesday,11/2/2016,8:20,INGLESIDE,NONE,0 Block of SCHWERIN ST,"(37.7127263408597, -122.410335138973)",1.61E+13,37.71272634,-122.4103351
160908342,ASSAULT,Monday,11/7/2016,17:02,TARAVAL,"ARREST, BOOKED",2900 Block of VICENTE ST,"(37.7383634269815, -122.498478880198)",1.61E+13,37.73836343,-122.4984789
160908342,ASSAULT,Monday,11/7/2016,17:02,TARAVAL,"ARREST, BOOKED",2900 Block of VICENTE ST,"(37.7383634269815, -122.498478880198)",1.61E+13,37.73836343,-122.4984789
160908449,ASSAULT,Monday,11/7/2016,16:35,NORTHERN,"ARREST, BOOKED",0 Block of WESTERNSHORES LN,"(37.7839672336818, -122.429149563529)",1.61E+13,37.78396723,-122.4291496
160908518,ASSAULT,Monday,11/7/2016,18:50,TENDERLOIN,"ARREST, BOOKED",0 Block of TAYLOR ST,"(37.7824948907735, -122.410689907787)",1.61E+13,37.78249489,-122.4106899
160908518,ASSAULT,Monday,11/7/2016,18:50,TENDERLOIN,"ARREST, BOOKED",0 Block of TAYLOR ST,"(37.7824948907735, -122.410689907787)",1.61E+13,37.78249489,-122.4106899
160908637,ASSAULT,Monday,11/7/2016,19:50,SOUTHERN,NONE,800 Block of BRYANT ST,"(37.775420706711, -122.403404791479)",1.61E+13,37.77542071,-122.4034048
160908665,ASSAULT,Monday,11/7/2016,20:25,MISSION,NONE,100 Block of EUREKA ST,"(37.7598729839802, -122.438256384623)",1.61E+13,37.75987298,-122.4382564
160908665,ASSAULT,Monday,11/7/2016,20:25,MISSION,NONE,100 Block of EUREKA ST,"(37.7598729839802, -122.438256384623)",1.61E+13,37.75987298,-122.4382564
160908706,ASSAULT,Friday,11/4/2016,5:00,INGLESIDE,NONE,200 Block of YERBABUENA AV,"(37.7347108344356, -122.459833331295)",1.61E+13,37.73471083,-122.4598333
160908994,ASSAULT,Monday,11/7/2016,22:56,SOUTHERN,NONE,300 Block of 4TH ST,"(37.7810432179334, -122.399833846531)",1.61E+13,37.78104322,-122.3998338
160909011,ASSAULT,Monday,11/7/2016,23:00,SOUTHERN,NONE,700 Block of MISSION ST,"(37.7852686309087, -122.403070000847)",1.61E+13,37.78526863,-122.40307
160909180,ASSAULT,Tuesday,11/8/2016,1:12,INGLESIDE,"ARREST, BOOKED",4900 Block of MISSION ST,"(37.7196920262929, -122.438695075365)",1.61E+13,37.71969203,-122.4386951
160909237,ASSAULT,Tuesday,11/8/2016,1:33,CENTRAL,"ARREST, BOOKED",0 Block of DRUMM ST,"(37.7941169057941, -122.396556426173)",1.61E+13,37.79411691,-122.3965564
160909306,ASSAULT,Tuesday,11/8/2016,2:45,SOUTHERN,NONE,100 Block of 7TH ST,"(37.7789597633583, -122.410718060304)",1.61E+13,37.77895976,-122.4107181
160909328,ASSAULT,Tuesday,11/8/2016,0:01,TENDERLOIN,NONE,300 Block of ELLIS ST,"(37.7849141859562, -122.411965795229)",1.61E+13,37.78491419,-122.4119658
160909607,ASSAULT,Tuesday,11/8/2016,8:10,SOUTHERN,NONE,MARKET ST / 7TH ST,"(37.7804777480508, -122.412515341356)",1.61E+13,37.78047775,-122.4125153
160910018,ASSAULT,Tuesday,11/8/2016,10:25,SOUTHERN,NONE,1800 Block of MARKET ST,"(37.7715566582355, -122.423636278531)",1.61E+13,37.77155666,-122.4236363
160910278,ASSAULT,Tuesday,11/8/2016,6:00,BAYVIEW,NONE,200 Block of TOLAND ST,"(37.745624194099, -122.397275231832)",1.61E+13,37.74562419,-122.3972752
160910325,ASSAULT,Tuesday,11/8/2016,9:00,MISSION,NONE,24TH ST / MISSION ST,"(37.7522391652625, -122.418448186101)",1.61E+13,37.75223917,-122.4184482
160910529,ASSAULT,Tuesday,11/8/2016,14:02,NORTHERN,"ARREST, BOOKED",1500 Block of BUCHANAN ST,"(37.7843473792029, -122.429469642223)",1.61E+13,37.78434738,-122.4294696
160910529,ASSAULT,Tuesday,11/8/2016,14:02,NORTHERN,"ARREST, BOOKED",1500 Block of BUCHANAN ST,"(37.7843473792029, -122.429469642223)",1.61E+13,37.78434738,-122.4294696
160910529,ASSAULT,Tuesday,11/8/2016,14:02,NORTHERN,"ARREST, BOOKED",1500 Block of BUCHANAN ST,"(37.7843473792029, -122.429469642223)",1.61E+13,37.78434738,-122.4294696
160910579,ASSAULT,Tuesday,11/8/2016,14:42,BAYVIEW,NONE,3800 Block of 3RD ST,"(37.7422600519555, -122.387939452192)",1.61E+13,37.74226005,-122.3879395
160910626,ASSAULT,Tuesday,11/8/2016,13:53,RICHMOND,"ARREST, BOOKED",200 Block of 3RD AV,"(37.7840072302612, -122.461201592755)",1.61E+13,37.78400723,-122.4612016
160910626,ASSAULT,Tuesday,11/8/2016,13:53,RICHMOND,"ARREST, BOOKED",200 Block of 3RD AV,"(37.7840072302612, -122.461201592755)",1.61E+13,37.78400723,-122.4612016
160910698,ASSAULT,Tuesday,11/8/2016,15:46,SOUTHERN,"ARREST, BOOKED",800 Block of MARKET ST,"(37.7850629421661, -122.406520987144)",1.61E+13,37.78506294,-122.406521
160910789,ASSAULT,Tuesday,11/8/2016,8:30,CENTRAL,NONE,1000 Block of SUTTER ST,"(37.7881242734432, -122.417672923626)",1.61E+13,37.78812427,-122.4176729
160910864,ASSAULT,Tuesday,11/8/2016,13:00,SOUTHERN,NONE,300 Block of MARKET ST,"(37.7921256222625, -122.39792044402)",1.61E+13,37.79212562,-122.3979204
160910870,ASSAULT,Tuesday,11/8/2016,16:35,TENDERLOIN,NONE,HYDE ST / GOLDEN GATE AV,"(37.7816542806076, -122.415508242782)",1.61E+13,37.78165428,-122.4155082
160910905,ASSAULT,Tuesday,11/8/2016,15:33,SOUTHERN,NONE,FOLSOM ST / SHERMAN ST,"(37.7773996401842, -122.407016490971)",1.61E+13,37.77739964,-122.4070165
160911395,ASSAULT,Wednesday,11/2/2016,22:30,TARAVAL,NONE,0 Block of CAMBON DR,"(37.718302204766, -122.474444639595)",1.61E+13,37.7183022,-122.4744446
160911420,ASSAULT,Tuesday,11/8/2016,19:00,CENTRAL,NONE,JACKSON ST / BATTERY ST,"(37.7967768892213, -122.400684265178)",1.61E+13,37.79677689,-122.4006843
160911436,ASSAULT,Tuesday,11/8/2016,19:50,INGLESIDE,NONE,0 Block of ITALY AV,"(37.7183367854264, -122.439093162497)",1.61E+13,37.71833679,-122.4390932
160911549,ASSAULT,Tuesday,11/8/2016,20:17,MISSION,"ARREST, BOOKED",600 Block of VALENCIA ST,"(37.7627436601147, -122.421747650463)",1.61E+13,37.76274366,-122.4217477
160911599,ASSAULT,Tuesday,11/8/2016,20:30,INGLESIDE,NONE,0 Block of HARRINGTON ST,"(37.7256640493624, -122.435313776535)",1.61E+13,37.72566405,-122.4353138
160911599,ASSAULT,Tuesday,11/8/2016,20:30,INGLESIDE,NONE,0 Block of HARRINGTON ST,"(37.7256640493624, -122.435313776535)",1.61E+13,37.72566405,-122.4353138
160911618,ASSAULT,Tuesday,11/8/2016,20:50,INGLESIDE,NONE,200 Block of SCHWERIN ST,"(37.7103677981028, -122.41152745831)",1.61E+13,37.7103678,-122.4115275
160911696,ASSAULT,Tuesday,11/8/2016,21:50,CENTRAL,NONE,800 Block of NORTHPOINT ST,"(37.8056604413272, -122.421215384827)",1.61E+13,37.80566044,-122.4212154
160911806,ASSAULT,Tuesday,11/8/2016,21:34,RICHMOND,"ARREST, BOOKED",2900 Block of ANZA ST,"(37.7784384926697, -122.479789830737)",1.61E+13,37.77843849,-122.4797898
160911878,ASSAULT,Tuesday,11/8/2016,15:00,TARAVAL,NONE,1200 Block of ORTEGA ST,"(37.7522985347253, -122.476860541877)",1.61E+13,37.75229853,-122.4768605
160911903,ASSAULT,Tuesday,11/8/2016,23:04,MISSION,NONE,FLORIDA ST / 17TH ST,"(37.7642516851931, -122.411332885127)",1.61E+13,37.76425169,-122.4113329
160911931,ASSAULT,Tuesday,11/8/2016,20:00,SOUTHERN,NONE,200 Block of INTERSTATE80 HY,"(37.8096707013239, -122.365565425353)",1.61E+13,37.8096707,-122.3655654
160912036,ASSAULT,Tuesday,11/8/2016,23:53,PARK,"ARREST, BOOKED",0 Block of FORTUNA AV,"(37.7805948566974, -122.442775703554)",1.61E+13,37.78059486,-122.4427757
160912149,ASSAULT,Wednesday,11/9/2016,1:01,SOUTHERN,NONE,300 Block of 9TH ST,"(37.7727234013654, -122.410416664036)",1.61E+13,37.7727234,-122.4104167
160912161,ASSAULT,Tuesday,11/8/2016,21:00,PARK,"ARREST, BOOKED",0 Block of CRESTLINE DR,"(37.750241057883, -122.446432100907)",1.61E+13,37.75024106,-122.4464321
160912763,ASSAULT,Wednesday,11/9/2016,9:44,CENTRAL,NONE,0 Block of JEFFERSON ST,"(37.8084667368908, -122.413349164272)",1.61E+13,37.80846674,-122.4133492
160912810,ASSAULT,Saturday,11/5/2016,15:30,BAYVIEW,NONE,400 Block of MANSELL ST,"(37.7204106184752, -122.406079770608)",1.61E+13,37.72041062,-122.4060798
160912848,ASSAULT,Wednesday,11/9/2016,8:18,SOUTHERN,"ARREST, BOOKED",1600 Block of MARKET ST,"(37.7732180675925, -122.421522300696)",1.61E+13,37.77321807,-122.4215223
160912901,ASSAULT,Wednesday,11/9/2016,9:30,SOUTHERN,NONE,500 Block of 7TH ST,"(37.773693038909, -122.403912950405)",1.61E+13,37.77369304,-122.403913
160912973,ASSAULT,Wednesday,11/9/2016,10:50,TARAVAL,"ARREST, BOOKED",100 Block of FARALLONES ST,"(37.7140109101974, -122.457576302609)",1.61E+13,37.71401091,-122.4575763
160913034,ASSAULT,Wednesday,11/9/2016,11:15,SOUTHERN,NONE,0 Block of 7TH ST,"(37.7802039058686, -122.412272455406)",1.61E+13,37.78020391,-122.4122725
160913084,ASSAULT,Monday,11/7/2016,12:00,NORTHERN,"ARREST, BOOKED",3200 Block of DIVISADERO ST,"(37.7995071150179, -122.442680550581)",1.61E+13,37.79950712,-122.4426806
160913404,ASSAULT,Wednesday,11/9/2016,12:02,MISSION,NONE,3400 Block of 18TH ST,"(37.7618219325945, -122.420494661635)",1.61E+13,37.76182193,-122.4204947
160913498,ASSAULT,Monday,11/7/2016,23:00,SOUTHERN,NONE,900 Block of MARKET ST,"(37.7828276498838, -122.409708423721)",1.61E+13,37.78282765,-122.4097084
160913595,ASSAULT,Wednesday,11/9/2016,9:15,TENDERLOIN,NONE,100 Block of TURK ST,"(37.7831614109395, -122.411615075408)",1.61E+13,37.78316141,-122.4116151
160913761,ASSAULT,Wednesday,11/9/2016,15:30,TENDERLOIN,NONE,OFARRELL ST / MASON ST,"(37.7862042105295, -122.409686191837)",1.61E+13,37.78620421,-122.4096862
160913783,ASSAULT,Wednesday,11/9/2016,15:15,PARK,NONE,400 Block of STANYAN ST,"(37.7738178294781, -122.454403066889)",1.61E+13,37.77381783,-122.4544031
160913943,ASSAULT,Wednesday,11/9/2016,16:33,NORTHERN,NONE,1800 Block of VANNESS AV,"(37.7925995641481, -122.422955398555)",1.61E+13,37.79259956,-122.4229554
160914082,ASSAULT,Wednesday,11/9/2016,16:20,BAYVIEW,NONE,BAY SHORE BL / ALEMANY BL,"(37.7379666158769, -122.406910767793)",1.61E+13,37.73796662,-122.4069108
160914242,ASSAULT,Wednesday,11/9/2016,12:50,SOUTHERN,NONE,800 Block of BRYANT ST,"(37.775420706711, -122.403404791479)",1.61E+13,37.77542071,-122.4034048
160914258,ASSAULT,Wednesday,11/9/2016,18:17,SOUTHERN,NONE,800 Block of BRYANT ST,"(37.775420706711, -122.403404791479)",1.61E+13,37.77542071,-122.4034048
160914258,ASSAULT,Wednesday,11/9/2016,18:17,SOUTHERN,NONE,800 Block of BRYANT ST,"(37.775420706711, -122.403404791479)",1.61E+13,37.77542071,-122.4034048
160914258,ASSAULT,Wednesday,11/9/2016,18:17,SOUTHERN,NONE,800 Block of BRYANT ST,"(37.775420706711, -122.403404791479)",1.61E+13,37.77542071,-122.4034048
160914286,ASSAULT,Wednesday,11/2/2016,17:00,MISSION,"ARREST, BOOKED",500 Block of VALENCIA ST,"(37.7640972229024, -122.421738508476)",1.61E+13,37.76409722,-122.4217385
160914286,ASSAULT,Wednesday,11/2/2016,17:00,MISSION,"ARREST, BOOKED",500 Block of VALENCIA ST,"(37.7640972229024, -122.421738508476)",1.61E+13,37.76409722,-122.4217385
160914286,ASSAULT,Wednesday,11/2/2016,17:00,MISSION,"ARREST, BOOKED",500 Block of VALENCIA ST,"(37.7640972229024, -122.421738508476)",1.61E+13,37.76409722,-122.4217385
160914424,ASSAULT,Sunday,11/6/2016,23:10,NORTHERN,NONE,1400 Block of PINE ST,"(37.789668941238, -122.419672954945)",1.61E+13,37.78966894,-122.419673
160914430,ASSAULT,Wednesday,11/9/2016,19:18,MISSION,"ARREST, BOOKED",3700 Block of 17TH ST,"(37.7627651977237, -122.429633638174)",1.61E+13,37.7627652,-122.4296336
160914430,ASSAULT,Wednesday,11/9/2016,19:18,MISSION,"ARREST, BOOKED",3700 Block of 17TH ST,"(37.7627651977237, -122.429633638174)",1.61E+13,37.7627652,-122.4296336
160914446,ASSAULT,Wednesday,11/9/2016,19:20,SOUTHERN,NONE,500 Block of BRYANT ST,"(37.7800859438702, -122.397501734179)",1.61E+13,37.78008594,-122.3975017
160914593,ASSAULT,Wednesday,11/9/2016,20:50,NORTHERN,NONE,1800 Block of PINE ST,"(37.7889430432056, -122.426267960819)",1.61E+13,37.78894304,-122.426268
160914612,ASSAULT,Wednesday,11/9/2016,20:50,INGLESIDE,NONE,5100 Block of MISSION ST,"(37.716127093001, -122.441352016549)",1.61E+13,37.71612709,-122.441352
160914612,ASSAULT,Wednesday,11/9/2016,20:50,INGLESIDE,NONE,5100 Block of MISSION ST,"(37.716127093001, -122.441352016549)",1.61E+13,37.71612709,-122.441352
160914725,ASSAULT,Tuesday,11/8/2016,17:20,INGLESIDE,NONE,500 Block of TOMPKINS AV,"(37.7371067513459, -122.413156703091)",1.61E+13,37.73710675,-122.4131567
160914866,ASSAULT,Wednesday,11/9/2016,23:13,MISSION,NONE,4000 Block of 18TH ST,"(37.7609766090845, -122.434457353955)",1.61E+13,37.76097661,-122.4344574
160914872,ASSAULT,Wednesday,11/9/2016,23:10,SOUTHERN,"ARREST, BOOKED",900 Block of BRYANT ST,"(37.7729658945581, -122.406510236246)",1.61E+13,37.77296589,-122.4065102
160914929,ASSAULT,Tuesday,11/8/2016,19:30,MISSION,NONE,2800 Block of MISSION ST,"(37.7514284856786, -122.418296094437)",1.61E+13,37.75142849,-122.4182961
160914929,ASSAULT,Tuesday,11/8/2016,19:30,MISSION,NONE,2800 Block of MISSION ST,"(37.7514284856786, -122.418296094437)",1.61E+13,37.75142849,-122.4182961
160914935,ASSAULT,Wednesday,11/9/2016,23:43,MISSION,"ARREST, BOOKED",2000 Block of HARRISON ST,"(37.7634666522563, -122.413018756978)",1.61E+13,37.76346665,-122.4130188
160915068,ASSAULT,Thursday,11/10/2016,1:32,MISSION,"ARREST, BOOKED",MISSION ST / ERIE ST,"(37.769043728757, -122.420034521733)",1.61E+13,37.76904373,-122.4200345
160915096,ASSAULT,Thursday,11/10/2016,12:10,MISSION,"ARREST, BOOKED",3800 Block of 20TH ST,"(37.7581017061518, -122.426925145612)",1.61E+13,37.75810171,-122.4269251
160915096,ASSAULT,Thursday,11/10/2016,12:10,MISSION,"ARREST, BOOKED",3800 Block of 20TH ST,"(37.7581017061518, -122.426925145612)",1.61E+13,37.75810171,-122.4269251
160915115,ASSAULT,Thursday,11/10/2016,2:02,MISSION,"ARREST, BOOKED",500 Block of VALENCIA ST,"(37.7640972229024, -122.421738508476)",1.61E+13,37.76409722,-122.4217385
160915115,ASSAULT,Thursday,11/10/2016,2:02,MISSION,"ARREST, BOOKED",500 Block of VALENCIA ST,"(37.7640972229024, -122.421738508476)",1.61E+13,37.76409722,-122.4217385
160915137,ASSAULT,Thursday,11/10/2016,3:28,INGLESIDE,"ARREST, BOOKED",400 Block of ALEMANY BL,"(37.7324126921971, -122.41633673193)",1.61E+13,37.73241269,-122.4163367
160915137,ASSAULT,Thursday,11/10/2016,3:28,INGLESIDE,"ARREST, BOOKED",400 Block of ALEMANY BL,"(37.7324126921971, -122.41633673193)",1.61E+13,37.73241269,-122.4163367
160915193,ASSAULT,Thursday,11/10/2016,4:57,TARAVAL,"ARREST, BOOKED",1600 Block of 39TH AV,"(37.7560726372194, -122.498026059204)",1.61E+13,37.75607264,-122.4980261
160915422,ASSAULT,Wednesday,11/9/2016,20:00,INGLESIDE,NONE,300 Block of ARBOR ST,"(37.73781096572, -122.439095799051)",1.61E+13,37.73781097,-122.4390958
160915438,ASSAULT,Thursday,11/10/2016,8:40,MISSION,NONE,DUBOCE AV / MISSION ST,"(37.7701099298175, -122.420010175609)",1.61E+13,37.77010993,-122.4200102
160915585,ASSAULT,Thursday,11/10/2016,9:28,SOUTHERN,"ARREST, BOOKED",800 Block of BRYANT ST,"(37.775420706711, -122.403404791479)",1.61E+13,37.77542071,-122.4034048
160915591,ASSAULT,Thursday,11/10/2016,8:15,BAYVIEW,NONE,3400 Block of JENNINGS ST,"(37.718646907349, -122.396336581318)",1.61E+13,37.71864691,-122.3963366
160915648,ASSAULT,Thursday,11/10/2016,9:30,SOUTHERN,"ARREST, BOOKED",MISSION ST / 9TH ST,"(37.7762310404758, -122.414714295579)",1.61E+13,37.77623104,-122.4147143
160915698,ASSAULT,Thursday,11/10/2016,10:00,MISSION,NONE,1300 Block of NATOMA ST,"(37.7675484464646, -122.418408871216)",1.61E+13,37.76754845,-122.4184089
160915723,ASSAULT,Thursday,11/10/2016,10:45,SOUTHERN,JUVENILE BOOKED,0 Block of THE EMBARCADEROSOUTH ST,"(37.7833104067015, -122.388379873919)",1.61E+13,37.78331041,-122.3883799
160915739,ASSAULT,Sunday,11/6/2016,22:00,CENTRAL,NONE,2800 Block of LEAVENWORTH ST,"(37.8073339305952, -122.419067224379)",1.61E+13,37.80733393,-122.4190672
160916038,ASSAULT,Thursday,11/10/2016,10:00,INGLESIDE,"ARREST, BOOKED",300 Block of JOOST AV,"(37.732406708175, -122.443193019025)",1.61E+13,37.73240671,-122.443193
160916038,ASSAULT,Thursday,11/10/2016,10:00,INGLESIDE,"ARREST, BOOKED",300 Block of JOOST AV,"(37.732406708175, -122.443193019025)",1.61E+13,37.73240671,-122.443193
160916072,ASSAULT,Thursday,11/10/2016,12:04,BAYVIEW,NONE,3RD ST / EVANS AV,"(37.7427030847405, -122.387927387609)",1.61E+13,37.74270308,-122.3879274
160916135,ASSAULT,Thursday,11/10/2016,13:03,BAYVIEW,NONE,REVERE AV / LANE ST,"(37.7316630694594, -122.390164818731)",1.61E+13,37.73166307,-122.3901648
160916157,ASSAULT,Thursday,11/3/2016,10:10,CENTRAL,NONE,1300 Block of POWELL ST,"(37.7971857276284, -122.4101460054)",1.61E+13,37.79718573,-122.410146
160916248,ASSAULT,Thursday,11/10/2016,14:00,SOUTHERN,NONE,0 Block of UNITEDNATIONS PZ,"(37.7799444052046, -122.414317857881)",1.61E+13,37.77994441,-122.4143179
160916339,ASSAULT,Thursday,11/10/2016,14:36,SOUTHERN,JUVENILE BOOKED,5THSTNORTH ST / MARKET ST,"(37.7839916768161, -122.408068345148)",1.61E+13,37.78399168,-122.4080683
160916345,ASSAULT,Thursday,11/10/2016,14:40,MISSION,NONE,16TH ST / POTRERO AV,"(37.7657827544276, -122.407538332319)",1.61E+13,37.76578275,-122.4075383
160916527,ASSAULT,Thursday,11/10/2016,16:00,NORTHERN,NONE,OLIVE ST / POLK ST,"(37.7844990197997, -122.419458073153)",1.61E+13,37.78449902,-122.4194581
160916555,ASSAULT,Thursday,11/10/2016,15:45,NORTHERN,NONE,CEDAR ST / POLK ST,"(37.7863580362743, -122.419834938618)",1.61E+13,37.78635804,-122.4198349
160916555,ASSAULT,Thursday,11/10/2016,15:45,NORTHERN,NONE,CEDAR ST / POLK ST,"(37.7863580362743, -122.419834938618)",1.61E+13,37.78635804,-122.4198349
160916555,ASSAULT,Thursday,11/10/2016,15:45,NORTHERN,NONE,CEDAR ST / POLK ST,"(37.7863580362743, -122.419834938618)",1.61E+13,37.78635804,-122.4198349
160916599,ASSAULT,Thursday,11/10/2016,16:20,RICHMOND,NONE,FULTON ST / GREAT HY,"(37.7713387826578, -122.511054248258)",1.61E+13,37.77133878,-122.5110542
160916599,ASSAULT,Thursday,11/10/2016,16:20,RICHMOND,NONE,FULTON ST / GREAT HY,"(37.7713387826578, -122.511054248258)",1.61E+13,37.77133878,-122.5110542
160916624,ASSAULT,Thursday,11/10/2016,16:12,CENTRAL,"ARREST, BOOKED",400 Block of COLUMBUS AV,"(37.7991423265238, -122.408407397189)",1.61E+13,37.79914233,-122.4084074
160916668,ASSAULT,Thursday,11/10/2016,16:30,TARAVAL,NONE,0 Block of FUENTE AV,"(37.7193838455847, -122.477993371794)",1.61E+13,37.71938385,-122.4779934
160916680,ASSAULT,Thursday,11/10/2016,15:28,PARK,JUVENILE BOOKED,0 Block of VEGA ST,"(37.7801242878056, -122.445893581212)",1.61E+13,37.78012429,-122.4458936
160916947,ASSAULT,Thursday,11/10/2016,17:51,RICHMOND,"ARREST, BOOKED",47TH AV / FULTON ST,"(37.7714939969416, -122.507750131004)",1.61E+13,37.771494,-122.5077501
160917020,ASSAULT,Thursday,11/10/2016,18:50,SOUTHERN,NONE,600 Block of MARKET ST,"(37.7884749146803, -122.402552957865)",1.61E+13,37.78847491,-122.402553
160917020,ASSAULT,Thursday,11/10/2016,18:50,SOUTHERN,NONE,600 Block of MARKET ST,"(37.7884749146803, -122.402552957865)",1.61E+13,37.78847491,-122.402553
160917183,ASSAULT,Thursday,11/10/2016,19:56,NORTHERN,"ARREST, BOOKED",1400 Block of LARKIN ST,"(37.7912635361132, -122.419062415432)",1.61E+13,37.79126354,-122.4190624
160917199,ASSAULT,Thursday,11/10/2016,11:34,SOUTHERN,NONE,1100 Block of FOLSOM ST,"(37.7761558110245, -122.408685885018)",1.61E+13,37.77615581,-122.4086859
160917365,ASSAULT,Thursday,11/10/2016,21:12,SOUTHERN,NONE,200 Block of BRANNAN ST,"(37.7829761961573, -122.390549349376)",1.61E+13,37.7829762,-122.3905493
160917365,ASSAULT,Thursday,11/10/2016,21:12,SOUTHERN,NONE,200 Block of BRANNAN ST,"(37.7829761961573, -122.390549349376)",1.61E+13,37.7829762,-122.3905493
160917387,ASSAULT,Thursday,11/10/2016,21:15,TARAVAL,"ARREST, BOOKED",1600 Block of 20TH AV,"(37.7569752185278, -122.477673364998)",1.61E+13,37.75697522,-122.4776734
160917387,ASSAULT,Thursday,11/10/2016,21:15,TARAVAL,"ARREST, BOOKED",1600 Block of 20TH AV,"(37.7569752185278, -122.477673364998)",1.61E+13,37.75697522,-122.4776734
160917412,ASSAULT,Thursday,11/10/2016,21:30,NORTHERN,"ARREST, BOOKED",500 Block of HAIGHT ST,"(37.7720549755537, -122.431289969136)",1.61E+13,37.77205498,-122.43129
160917484,ASSAULT,Thursday,11/10/2016,22:08,BAYVIEW,NONE,100 Block of KISKA RD,"(37.7304096808335, -122.378494173975)",1.61E+13,37.73040968,-122.3784942
160917575,ASSAULT,Thursday,11/10/2016,22:30,PARK,"ARREST, BOOKED",1600 Block of TURK ST,"(37.7800247331065, -122.436274979481)",1.61E+13,37.78002473,-122.436275
160917575,ASSAULT,Thursday,11/10/2016,22:30,PARK,"ARREST, BOOKED",1600 Block of TURK ST,"(37.7800247331065, -122.436274979481)",1.61E+13,37.78002473,-122.436275
160917575,ASSAULT,Thursday,11/10/2016,22:30,PARK,"ARREST, BOOKED",1600 Block of TURK ST,"(37.7800247331065, -122.436274979481)",1.61E+13,37.78002473,-122.436275
160917638,ASSAULT,Thursday,11/10/2016,22:47,NORTHERN,NONE,1000 Block of POST ST,"(37.7868764841608, -122.419104424644)",1.61E+13,37.78687648,-122.4191044
160917757,ASSAULT,Thursday,11/10/2016,23:24,TENDERLOIN,NONE,200 Block of GOLDEN GATE AV,"(37.7816524457175, -122.415083177799)",1.61E+13,37.78165245,-122.4150832
160918040,ASSAULT,Friday,11/11/2016,4:00,SOUTHERN,"ARREST, BOOKED",500 Block of JESSIE ST,"(37.7810558831366, -122.409776479312)",1.61E+13,37.78105588,-122.4097765
160918125,ASSAULT,Thursday,11/10/2016,22:30,BAYVIEW,NONE,SAN BRUNO AV / OLMSTEAD ST,"(37.7228342288863, -122.401615287879)",1.61E+13,37.72283423,-122.4016153
160918153,ASSAULT,Friday,11/11/2016,7:01,TENDERLOIN,NONE,300 Block of LEAVENWORTH ST,"(37.7841907151119, -122.414406029855)",1.61E+13,37.78419072,-122.414406
160918379,ASSAULT,Thursday,11/10/2016,21:30,BAYVIEW,NONE,THORNTON AV / BAY SHORE BL,"(37.730658826685, -122.403402998592)",1.61E+13,37.73065883,-122.403403
160918476,ASSAULT,Friday,11/11/2016,7:30,BAYVIEW,"ARREST, BOOKED",0 Block of NORTHRIDGE RD,"(37.7307215215703, -122.375605171962)",1.61E+13,37.73072152,-122.3756052
160918476,ASSAULT,Friday,11/11/2016,7:30,BAYVIEW,"ARREST, BOOKED",0 Block of NORTHRIDGE RD,"(37.7307215215703, -122.375605171962)",1.61E+13,37.73072152,-122.3756052
160918482,ASSAULT,Friday,11/11/2016,9:26,CENTRAL,"ARREST, BOOKED",400 Block of SANSOME ST,"(37.7946419086629, -122.401377352704)",1.61E+13,37.79464191,-122.4013774
160918517,ASSAULT,Friday,11/11/2016,8:30,MISSION,NONE,3400 Block of 17TH ST,"(37.7631384162933, -122.423533717089)",1.61E+13,37.76313842,-122.4235337
160918733,ASSAULT,Friday,11/11/2016,10:15,MISSION,NONE,BRYANT ST / 24TH ST,"(37.7527969985584, -122.409131939489)",1.61E+13,37.752797,-122.4091319
160918846,ASSAULT,Friday,11/11/2016,12:12,TENDERLOIN,NONE,100 Block of HYDE ST,"(37.7821198488931, -122.415669661443)",1.61E+13,37.78211985,-122.4156697
160918937,ASSAULT,Friday,11/11/2016,12:15,PARK,NONE,400 Block of UPPER TR,"(37.7633535323027, -122.445199394215)",1.61E+13,37.76335353,-122.4451994
160919004,ASSAULT,Friday,11/11/2016,11:00,SOUTHERN,"ARREST, BOOKED",800 Block of 7TH ST,"(37.7707817099653, -122.400455071852)",1.61E+13,37.77078171,-122.4004551
160919026,ASSAULT,Friday,11/11/2016,13:01,BAYVIEW,NONE,700 Block of MISSOURI ST,"(37.7572374683582, -122.395891602231)",1.61E+13,37.75723747,-122.3958916
160919048,ASSAULT,Friday,11/11/2016,12:49,SOUTHERN,NONE,0 Block of ELGINPARK ST,"(37.7706495415688, -122.423294751714)",1.61E+13,37.77064954,-122.4232948
160919054,ASSAULT,Friday,11/11/2016,12:21,INGLESIDE,NONE,600 Block of EDINBURGH ST,"(37.718859841859, -122.433721677127)",1.61E+13,37.71885984,-122.4337217
160919076,ASSAULT,Friday,11/11/2016,12:30,NORTHERN,NONE,2000 Block of POLK ST,"(37.7955038710773, -122.421608893207)",1.61E+13,37.79550387,-122.4216089
160919076,ASSAULT,Friday,11/11/2016,12:30,NORTHERN,NONE,2000 Block of POLK ST,"(37.7955038710773, -122.421608893207)",1.61E+13,37.79550387,-122.4216089
160919098,ASSAULT,Friday,11/11/2016,13:00,BAYVIEW,"ARREST, BOOKED",3RD ST / PALOU AV,"(37.7340152180723, -122.390971734551)",1.61E+13,37.73401522,-122.3909717
160919305,ASSAULT,Friday,11/11/2016,14:17,SOUTHERN,"ARREST, BOOKED",800 Block of MARKET ST,"(37.7841893501425, -122.407633520742)",1.61E+13,37.78418935,-122.4076335
160919305,ASSAULT,Friday,11/11/2016,14:17,SOUTHERN,"ARREST, BOOKED",800 Block of MARKET ST,"(37.7841893501425, -122.407633520742)",1.61E+13,37.78418935,-122.4076335
160919333,ASSAULT,Thursday,11/10/2016,14:37,TARAVAL,NONE,200 Block of SAGAMORE ST,"(37.7113249681306, -122.460564524171)",1.61E+13,37.71132497,-122.4605645
160919509,ASSAULT,Friday,11/11/2016,15:37,SOUTHERN,"ARREST, BOOKED",MCALLISTER ST / JONES ST,"(37.7809039696758, -122.411979487494)",1.61E+13,37.78090397,-122.4119795
160919515,ASSAULT,Friday,11/11/2016,15:40,CENTRAL,NONE,600 Block of PACIFIC AV,"(37.7969469304359, -122.406034753134)",1.61E+13,37.79694693,-122.4060348
160919537,ASSAULT,Friday,11/11/2016,15:45,SOUTHERN,NONE,6TH ST / BRYANT ST,"(37.7760382838346, -122.402527594665)",1.61E+13,37.77603828,-122.4025276
160919747,ASSAULT,Friday,11/11/2016,14:00,BAYVIEW,NONE,1600 Block of 16TH ST,"(37.7661000581767, -122.403178416796)",1.61E+13,37.76610006,-122.4031784
160919769,ASSAULT,Friday,11/11/2016,9:00,BAYVIEW,NONE,300 Block of BRIDGEVIEW DR,"(37.7324984940214, -122.39861702571)",1.61E+13,37.73249849,-122.398617
160919822,ASSAULT,Friday,11/11/2016,17:30,NORTHERN,NONE,1300 Block of WEBSTER ST,"(37.7830295716044, -122.431046366089)",1.61E+13,37.78302957,-122.4310464
160919850,ASSAULT,Friday,11/11/2016,17:13,SOUTHERN,"ARREST, BOOKED",1900 Block of MARKET ST,"(37.7702451976438, -122.425669041358)",1.61E+13,37.7702452,-122.425669
160919850,ASSAULT,Friday,11/11/2016,17:13,SOUTHERN,"ARREST, BOOKED",1900 Block of MARKET ST,"(37.7702451976438, -122.425669041358)",1.61E+13,37.7702452,-122.425669
160919913,ASSAULT,Friday,11/11/2016,16:35,MISSION,"ARREST, BOOKED",200 Block of FLORIDA ST,"(37.7674733590819, -122.411710526028)",1.61E+13,37.76747336,-122.4117105
160919929,ASSAULT,Friday,11/11/2016,16:44,INGLESIDE,NONE,100 Block of SANJUAN AV,"(37.7250483665819, -122.437456745833)",1.61E+13,37.72504837,-122.4374567
160920045,ASSAULT,Friday,11/11/2016,17:30,PARK,NONE,1300 Block of DIVISADERO ST,"(37.7819788533568, -122.439329634936)",1.61E+13,37.78197885,-122.4393296
160920051,ASSAULT,Thursday,11/10/2016,14:00,PARK,NONE,700 Block of FREDERICK ST,"(37.765905864994, -122.456202166027)",1.61E+13,37.76590586,-122.4562022
160920164,ASSAULT,Friday,11/11/2016,19:50,MISSION,NONE,1000 Block of SOUTH VAN NESS AV,"(37.7563562905072, -122.416572667483)",1.61E+13,37.75635629,-122.4165727
160920164,ASSAULT,Friday,11/11/2016,19:50,MISSION,NONE,1000 Block of SOUTH VAN NESS AV,"(37.7563562905072, -122.416572667483)",1.61E+13,37.75635629,-122.4165727
160920186,ASSAULT,Friday,11/11/2016,18:45,TARAVAL,"ARREST, BOOKED",300 Block of VERNON ST,"(37.718800112012, -122.467975280838)",1.61E+13,37.71880011,-122.4679753
160920186,ASSAULT,Friday,11/11/2016,18:45,TARAVAL,"ARREST, BOOKED",300 Block of VERNON ST,"(37.718800112012, -122.467975280838)",1.61E+13,37.71880011,-122.4679753
160920283,ASSAULT,Friday,11/11/2016,20:27,SOUTHERN,"ARREST, BOOKED",600 Block of BRYANT ST,"(37.77862707848, -122.399151509541)",1.61E+13,37.77862708,-122.3991515
160920368,ASSAULT,Friday,11/11/2016,21:10,SOUTHERN,"ARREST, BOOKED",7TH ST / MARKET ST,"(37.7804777480508, -122.412515341356)",1.61E+13,37.78047775,-122.4125153
160920562,ASSAULT,Friday,11/11/2016,22:29,SOUTHERN,"ARREST, BOOKED",MISSION ST / 5TH ST,"(37.7827317884887, -122.406481972743)",1.61E+13,37.78273179,-122.406482
160920619,ASSAULT,Friday,11/11/2016,23:51,NORTHERN,NONE,BUSH ST / POLK ST,"(37.7886989511647, -122.420307355721)",1.61E+13,37.78869895,-122.4203074
160920669,ASSAULT,Friday,11/11/2016,23:11,INGLESIDE,NONE,400 Block of VIENNA ST,"(37.7212651901839, -122.429901316265)",1.61E+13,37.72126519,-122.4299013
160920788,ASSAULT,Saturday,11/12/2016,1:21,BAYVIEW,NONE,1600 Block of OAKDALE AV,"(37.7352842415297, -122.391431786513)",1.61E+13,37.73528424,-122.3914318
160920885,ASSAULT,Saturday,11/12/2016,1:55,MISSION,"ARREST, BOOKED",3000 Block of 16TH ST,"(37.7650815376682, -122.420080983505)",1.61E+13,37.76508154,-122.420081
160920976,ASSAULT,Saturday,11/12/2016,2:58,CENTRAL,"ARREST, BOOKED",2600 Block of MASON ST,"(37.8079694729269, -122.414003178329)",1.61E+13,37.80796947,-122.4140032
160921043,ASSAULT,Friday,11/11/2016,19:00,CENTRAL,"ARREST, BOOKED",500 Block of FRANCISCO ST,"(37.8046348825476, -122.41426677512)",1.61E+13,37.80463488,-122.4142668
160921043,ASSAULT,Friday,11/11/2016,19:00,CENTRAL,"ARREST, BOOKED",500 Block of FRANCISCO ST,"(37.8046348825476, -122.41426677512)",1.61E+13,37.80463488,-122.4142668
160921059,ASSAULT,Saturday,11/12/2016,4:41,INGLESIDE,NONE,4900 Block of MISSION ST,"(37.719605303427, -122.438519414468)",1.61E+13,37.7196053,-122.4385194
160921247,ASSAULT,Saturday,11/12/2016,8:30,CENTRAL,"ARREST, BOOKED",700 Block of VALLEJO ST,"(37.7985083480435, -122.409791662293)",1.61E+13,37.79850835,-122.4097917
160921338,ASSAULT,Saturday,11/12/2016,8:59,CENTRAL,"ARREST, BOOKED",200 Block of BEACH ST,"(37.8076387530515, -122.413178958845)",1.61E+13,37.80763875,-122.413179
160921532,ASSAULT,Saturday,11/12/2016,10:00,INGLESIDE,NONE,1800 Block of SUNNYDALE AV,"(37.7121502932531, -122.417144802399)",1.61E+13,37.71215029,-122.4171448
160921560,ASSAULT,Saturday,11/12/2016,10:25,TARAVAL,NONE,0 Block of WESTGATE DR,"(37.7277933438403, -122.465948189789)",1.61E+13,37.72779334,-122.4659482
160921742,ASSAULT,Saturday,11/12/2016,11:45,SOUTHERN,"ARREST, BOOKED",0 Block of UNITEDNATIONS PZ,"(37.7799444052046, -122.414317857881)",1.61E+13,37.77994441,-122.4143179
160921742,ASSAULT,Saturday,11/12/2016,11:45,SOUTHERN,"ARREST, BOOKED",0 Block of UNITEDNATIONS PZ,"(37.7799444052046, -122.414317857881)",1.61E+13,37.77994441,-122.4143179
160921968,ASSAULT,Saturday,11/12/2016,12:40,NORTHERN,NONE,1900 Block of FILLMORE ST,"(37.787708547267, -122.433668534709)",1.61E+13,37.78770855,-122.4336685
160922063,ASSAULT,Saturday,11/12/2016,13:30,SOUTHERN,NONE,MARKET ST / 6TH ST,"(37.7822305870036, -122.41029351969)",1.61E+13,37.78223059,-122.4102935
160922063,ASSAULT,Saturday,11/12/2016,13:30,SOUTHERN,NONE,MARKET ST / 6TH ST,"(37.7822305870036, -122.41029351969)",1.61E+13,37.78223059,-122.4102935
160922104,ASSAULT,Saturday,11/12/2016,13:34,INGLESIDE,"ARREST, BOOKED",CUVIER ST / BOSWORTH ST,"(37.7334718466209, -122.428561309285)",1.61E+13,37.73347185,-122.4285613
160922245,ASSAULT,Saturday,11/12/2016,14:40,PARK,NONE,400 Block of STANYAN ST,"(37.7738178294781, -122.454403066889)",1.61E+13,37.77381783,-122.4544031
160922289,ASSAULT,Saturday,11/12/2016,14:30,BAYVIEW,NONE,25TH ST / DAKOTA ST,"(37.7524273767291, -122.394588601096)",1.61E+13,37.75242738,-122.3945886
160922386,ASSAULT,Saturday,11/12/2016,15:10,SOUTHERN,"ARREST, BOOKED",PLUM ST / MISSION ST,"(37.7710058100423, -122.419649218806)",1.61E+13,37.77100581,-122.4196492
160922427,ASSAULT,Saturday,11/12/2016,15:40,MISSION,"ARREST, BOOKED",1000 Block of POTRERO AV,"(37.7564864109309, -122.406539115148)",1.61E+13,37.75648641,-122.4065391
160922433,ASSAULT,Saturday,11/12/2016,15:18,TARAVAL,"ARREST, BOOKED",19TH AV / HOLLOWAY AV,"(37.7210571460375, -122.475222189932)",1.61E+13,37.72105715,-122.4752222
160922477,ASSAULT,Saturday,11/12/2016,15:30,TENDERLOIN,"ARREST, BOOKED",200 Block of POWELL ST,"(37.7869021819676, -122.408064958219)",1.61E+13,37.78690218,-122.408065
160922499,ASSAULT,Saturday,11/12/2016,15:45,SOUTHERN,"ARREST, BOOKED",100 Block of 5TH ST,"(37.7816735402084, -122.405248892811)",1.61E+13,37.78167354,-122.4052489
160922922,ASSAULT,Saturday,11/12/2016,18:00,SOUTHERN,"ARREST, BOOKED",1000 Block of MISSION ST,"(37.7800356268394, -122.409795194505)",1.61E+13,37.78003563,-122.4097952
160922922,ASSAULT,Saturday,11/12/2016,18:00,SOUTHERN,"ARREST, BOOKED",1000 Block of MISSION ST,"(37.7800356268394, -122.409795194505)",1.61E+13,37.78003563,-122.4097952
160923005,ASSAULT,Saturday,11/12/2016,18:30,MISSION,"ARREST, BOOKED",2300 Block of 16TH ST,"(37.7657184395282, -122.409529913278)",1.61E+13,37.76571844,-122.4095299
160923005,ASSAULT,Saturday,11/12/2016,18:30,MISSION,"ARREST, BOOKED",2300 Block of 16TH ST,"(37.7657184395282, -122.409529913278)",1.61E+13,37.76571844,-122.4095299
160923102,ASSAULT,Saturday,11/12/2016,12:00,NORTHERN,NONE,2000 Block of POLK ST,"(37.7954864877343, -122.421745585378)",1.61E+13,37.79548649,-122.4217456
160923118,ASSAULT,Saturday,11/12/2016,16:42,TENDERLOIN,"ARREST, BOOKED",100 Block of TAYLOR ST,"(37.7836778741124, -122.410928353347)",1.61E+13,37.78367787,-122.4109284
160923118,ASSAULT,Saturday,11/12/2016,16:42,TENDERLOIN,"ARREST, BOOKED",100 Block of TAYLOR ST,"(37.7836778741124, -122.410928353347)",1.61E+13,37.78367787,-122.4109284
160923168,ASSAULT,Saturday,11/12/2016,19:30,SOUTHERN,NONE,MARKET ST / 7TH ST,"(37.7804777480508, -122.412515341356)",1.61E+13,37.78047775,-122.4125153
160923215,ASSAULT,Saturday,11/12/2016,18:44,TARAVAL,NONE,200 Block of WINSTON DR,"(37.7269346350353, -122.477976682169)",1.61E+13,37.72693464,-122.4779767
160923243,ASSAULT,Saturday,11/12/2016,19:45,SOUTHERN,NONE,800 Block of BRANNAN ST,"(37.7721958190345, -122.404385042303)",1.61E+13,37.77219582,-122.404385
160923663,ASSAULT,Saturday,11/12/2016,23:32,CENTRAL,"ARREST, BOOKED",700 Block of POST ST,"(37.7876109394648, -122.41420144235)",1.61E+13,37.78761094,-122.4142014
160923726,ASSAULT,Saturday,11/12/2016,20:30,MISSION,NONE,3400 Block of 20TH ST,"(37.7586106526706, -122.418503408915)",1.61E+13,37.75861065,-122.4185034
160923889,ASSAULT,Sunday,11/13/2016,2:03,NORTHERN,"ARREST, BOOKED",PINE ST / VANNESS AV,"(37.7894107633457, -122.422139511488)",1.61E+13,37.78941076,-122.4221395
160924047,ASSAULT,Sunday,11/13/2016,2:00,CENTRAL,NONE,SANSOME ST / UNION ST,"(37.8012422995059, -122.402792626123)",1.61E+13,37.8012423,-122.4027926
160924075,ASSAULT,Sunday,11/13/2016,4:12,MISSION,"ARREST, BOOKED",4600 Block of 18TH ST,"(37.7605609809645, -122.441285586088)",1.61E+13,37.76056098,-122.4412856
160924122,ASSAULT,Sunday,11/13/2016,6:02,SOUTHERN,NONE,1000 Block of MARKET ST,"(37.7817511307229, -122.411071423064)",1.61E+13,37.78175113,-122.4110714
160924376,ASSAULT,Saturday,11/12/2016,20:15,TENDERLOIN,NONE,JONES ST / EDDY ST,"(37.7839320277273, -122.412597377187)",1.61E+13,37.78393203,-122.4125974
160924401,ASSAULT,Saturday,11/12/2016,22:00,PARK,NONE,17TH ST / CLAYTON ST,"(37.7617815973872, -122.446783496628)",1.61E+13,37.7617816,-122.4467835
160924633,ASSAULT,Saturday,11/12/2016,23:30,CENTRAL,NONE,1000 Block of SUTTER ST,"(37.7881242734432, -122.417672923626)",1.61E+13,37.78812427,-122.4176729
160924730,ASSAULT,Sunday,11/13/2016,11:49,MISSION,"ARREST, BOOKED",3300 Block of CESAR CHAVEZ ST,"(37.748285429414, -122.417067044038)",1.61E+13,37.74828543,-122.417067
160925108,ASSAULT,Sunday,11/13/2016,15:15,CENTRAL,"ARREST, BOOKED",900 Block of BEACH ST,"(37.8062091993678, -122.424370033297)",1.61E+13,37.8062092,-122.42437
160925205,ASSAULT,Sunday,11/13/2016,15:39,TARAVAL,"ARREST, BOOKED",2400 Block of 27TH AV,"(37.7417243639553, -122.484127633068)",1.61E+13,37.74172436,-122.4841276
160925249,ASSAULT,Sunday,11/13/2016,15:47,INGLESIDE,NONE,5000 Block of MISSION ST,"(37.7168806524941, -122.440777706243)",1.61E+13,37.71688065,-122.4407777
160925346,ASSAULT,Sunday,11/13/2016,17:10,BAYVIEW,NONE,0 Block of DAKOTA ST,"(37.7536178531447, -122.395513264888)",1.61E+13,37.75361785,-122.3955133
160925346,ASSAULT,Sunday,11/13/2016,17:10,BAYVIEW,NONE,0 Block of DAKOTA ST,"(37.7536178531447, -122.395513264888)",1.61E+13,37.75361785,-122.3955133
160925556,ASSAULT,Sunday,11/13/2016,19:07,SOUTHERN,NONE,HOWARD ST / 3RD ST,"(37.7850290611875, -122.400473580152)",1.61E+13,37.78502906,-122.4004736
160925590,ASSAULT,Sunday,11/13/2016,19:33,TENDERLOIN,"ARREST, BOOKED",TAYLOR ST / OFARRELL ST,"(37.7859963050476, -122.411328369311)",1.61E+13,37.78599631,-122.4113284
160925669,ASSAULT,Sunday,11/13/2016,20:09,BAYVIEW,NONE,700 Block of MISSOURI ST,"(37.7572927810101, -122.395771897062)",1.61E+13,37.75729278,-122.3957719
160925716,ASSAULT,Sunday,11/13/2016,19:55,CENTRAL,"ARREST, BOOKED",1600 Block of THE EMBARCADERONORTH ST,"(37.8084350175869, -122.410774214375)",1.61E+13,37.80843502,-122.4107742
160925857,ASSAULT,Sunday,11/13/2016,22:10,SOUTHERN,"ARREST, BOOKED",300 Block of HARRISON ST,"(37.7870647860468, -122.391575870099)",1.61E+13,37.78706479,-122.3915759
160925904,ASSAULT,Sunday,11/13/2016,22:30,MISSION,NONE,2200 Block of MISSION ST,"(37.7610244167023, -122.419212198636)",1.61E+13,37.76102442,-122.4192122
160926269,ASSAULT,Monday,11/14/2016,4:10,NORTHERN,NONE,OLIVE ST / LARKIN ST,"(37.7847098968616, -122.4178091031)",1.61E+13,37.7847099,-122.4178091
160926281,ASSAULT,Monday,11/14/2016,4:15,INGLESIDE,"ARREST, BOOKED",200 Block of BLYTHDALE AV,"(37.7108945814914, -122.420556751442)",1.61E+13,37.71089458,-122.4205568
160926281,ASSAULT,Monday,11/14/2016,4:15,INGLESIDE,"ARREST, BOOKED",200 Block of BLYTHDALE AV,"(37.7108945814914, -122.420556751442)",1.61E+13,37.71089458,-122.4205568
160926281,ASSAULT,Monday,11/14/2016,4:15,INGLESIDE,"ARREST, BOOKED",200 Block of BLYTHDALE AV,"(37.7108945814914, -122.420556751442)",1.61E+13,37.71089458,-122.4205568
160926297,ASSAULT,Monday,11/14/2016,5:25,SOUTHERN,NONE,1200 Block of HOWARD ST,"(37.775633673443, -122.412447373124)",1.61E+13,37.77563367,-122.4124474
160926338,ASSAULT,Monday,11/14/2016,6:15,BAYVIEW,NONE,0 Block of CAMERON WY,"(37.7202869779119, -122.385879189053)",1.61E+13,37.72028698,-122.3858792
160926617,ASSAULT,Monday,11/14/2016,8:09,SOUTHERN,NONE,900 Block of BRANNAN ST,"(37.7707000250114, -122.406277073987)",1.61E+13,37.77070003,-122.4062771
160926673,ASSAULT,Monday,11/14/2016,8:28,SOUTHERN,NONE,400 Block of MARKET ST,"(37.7912863462309, -122.398623347456)",1.61E+13,37.79128635,-122.3986233
160926968,ASSAULT,Monday,11/14/2016,10:00,CENTRAL,NONE,300 Block of MONTGOMERY ST,"(37.7923930433863, -122.40260260964)",1.61E+13,37.79239304,-122.4026026
160926996,ASSAULT,Sunday,11/13/2016,13:00,TENDERLOIN,"ARREST, BOOKED",100 Block of LEAVENWORTH ST,"(37.7823291237659, -122.414029821727)",1.61E+13,37.78232912,-122.4140298
160927223,ASSAULT,Monday,11/14/2016,12:00,MISSION,NONE,TREAT AV / ALAMEDA ST,"(37.7680741693848, -122.412424364002)",1.61E+13,37.76807417,-122.4124244
160927370,ASSAULT,Monday,11/14/2016,12:45,INGLESIDE,NONE,200 Block of MORSE ST,"(37.7126651187374, -122.440318771224)",1.61E+13,37.71266512,-122.4403188
160927370,ASSAULT,Monday,11/14/2016,12:45,INGLESIDE,NONE,200 Block of MORSE ST,"(37.7126651187374, -122.440318771224)",1.61E+13,37.71266512,-122.4403188
160928005,ASSAULT,Monday,11/14/2016,13:00,INGLESIDE,"ARREST, BOOKED",900 Block of ELLSWORTH ST,"(37.7329162539537, -122.416446124049)",1.61E+13,37.73291625,-122.4164461
160928005,ASSAULT,Monday,11/14/2016,13:00,INGLESIDE,"ARREST, BOOKED",900 Block of ELLSWORTH ST,"(37.7329162539537, -122.416446124049)",1.61E+13,37.73291625,-122.4164461
160928005,ASSAULT,Monday,11/14/2016,13:00,INGLESIDE,"ARREST, BOOKED",900 Block of ELLSWORTH ST,"(37.7329162539537, -122.416446124049)",1.61E+13,37.73291625,-122.4164461
160928033,ASSAULT,Monday,11/14/2016,16:42,BAYVIEW,NONE,5000 Block of 3RD ST,"(37.7327899367388, -122.391257625349)",1.61E+13,37.73278994,-122.3912576
160928077,ASSAULT,Saturday,11/12/2016,17:00,CENTRAL,NONE,0 Block of JEFFERSON ST,"(37.8084667368908, -122.413349164272)",1.61E+13,37.80846674,-122.4133492
160928124,ASSAULT,Monday,11/14/2016,16:44,MISSION,"ARREST, BOOKED",3000 Block of HARRISON ST,"(37.7486195212612, -122.411584193034)",1.61E+13,37.74861952,-122.4115842
160928124,ASSAULT,Monday,11/14/2016,16:44,MISSION,"ARREST, BOOKED",3000 Block of HARRISON ST,"(37.7486195212612, -122.411584193034)",1.61E+13,37.74861952,-122.4115842
160928124,ASSAULT,Monday,11/14/2016,16:44,MISSION,"ARREST, BOOKED",3000 Block of HARRISON ST,"(37.7486195212612, -122.411584193034)",1.61E+13,37.74861952,-122.4115842
160928306,ASSAULT,Sunday,11/13/2016,14:00,MISSION,NONE,2300 Block of FOLSOM ST,"(37.7596861764245, -122.41469551481)",1.61E+13,37.75968618,-122.4146955
160928607,ASSAULT,Monday,11/14/2016,18:40,BAYVIEW,NONE,FITZGERALD AV / INGALLS ST,"(37.7209756888068, -122.391307417333)",1.61E+13,37.72097569,-122.3913074
160928629,ASSAULT,Monday,11/14/2016,16:00,TENDERLOIN,NONE,400 Block of TURK ST,"(37.7824465135592, -122.416342977622)",1.61E+13,37.78244651,-122.416343
160928710,ASSAULT,Monday,11/14/2016,19:26,BAYVIEW,NONE,1300 Block of KANSAS ST,"(37.7525902592916, -122.402305250227)",1.61E+13,37.75259026,-122.4023053
160928726,ASSAULT,Monday,11/14/2016,19:15,SOUTHERN,NONE,800 Block of MARKET ST,"(37.7841893501425, -122.407633520742)",1.61E+13,37.78418935,-122.4076335
160929025,ASSAULT,Monday,11/14/2016,21:12,SOUTHERN,NONE,500 Block of MARKET ST,"(37.7897601819924, -122.400922955775)",1.61E+13,37.78976018,-122.400923
160929097,ASSAULT,Tuesday,11/15/2016,0:21,NORTHERN,"ARREST, BOOKED",400 Block of VANNESS AV,"(37.7791510160099, -122.420217273345)",1.61E+13,37.77915102,-122.4202173
160929097,ASSAULT,Tuesday,11/15/2016,0:21,NORTHERN,"ARREST, BOOKED",400 Block of VANNESS AV,"(37.7791510160099, -122.420217273345)",1.61E+13,37.77915102,-122.4202173
160929235,ASSAULT,Tuesday,11/15/2016,1:57,MISSION,NONE,1200 Block of TREAT AV,"(37.7501495078008, -122.41283040295)",1.61E+13,37.75014951,-122.4128304
160929279,ASSAULT,Tuesday,11/15/2016,2:20,MISSION,NONE,1000 Block of POTRERO AV,"(37.7564864109309, -122.406539115148)",1.61E+13,37.75648641,-122.4065391
160929291,ASSAULT,Monday,11/14/2016,22:00,TARAVAL,NONE,300 Block of GARFIELD ST,"(37.71962701176, -122.465813662154)",1.61E+13,37.71962701,-122.4658137
160929423,ASSAULT,Tuesday,11/15/2016,7:26,TARAVAL,NONE,1300 Block of 29TH AV,"(37.7621382641819, -122.487841263089)",1.61E+13,37.76213826,-122.4878413
160929445,ASSAULT,Tuesday,11/15/2016,7:30,PARK,NONE,PAGE ST / STANYAN ST,"(37.7700970411704, -122.453728603068)",1.61E+13,37.77009704,-122.4537286
160929495,ASSAULT,Tuesday,11/15/2016,7:45,NORTHERN,NONE,MARKET ST / SOUTH VAN NESS AV,"(37.7751462916539, -122.419257894814)",1.61E+13,37.77514629,-122.4192579
160929633,ASSAULT,Tuesday,11/15/2016,8:58,TENDERLOIN,NONE,100 Block of POWELL ST,"(37.7859507767613, -122.40801449292)",1.61E+13,37.78595078,-122.4080145
160930135,ASSAULT,Tuesday,11/15/2016,7:55,PARK,NONE,CASTRO ST / 15TH ST,"(37.7657256987495, -122.435471454169)",1.61E+13,37.7657257,-122.4354715
160930141,ASSAULT,Monday,11/14/2016,12:15,BAYVIEW,NONE,2400 Block of KEITH ST,"(37.7258752365346, -122.392462785161)",1.61E+13,37.72587524,-122.3924628
160930254,ASSAULT,Tuesday,11/15/2016,8:46,MISSION,"ARREST, BOOKED",2000 Block of MISSION ST,"(37.7642205603745, -122.41965834371)",1.61E+13,37.76422056,-122.4196583
160930298,ASSAULT,Tuesday,11/15/2016,10:10,RICHMOND,NONE,600 Block of 32ND AV,"(37.7768766735218, -122.491956779206)",1.61E+13,37.77687667,-122.4919568
160930395,ASSAULT,Sunday,11/13/2016,13:00,PARK,NONE,2100 Block of GROVE ST,"(37.774088474589, -122.451993022879)",1.61E+13,37.77408847,-122.451993
160930668,ASSAULT,Tuesday,11/15/2016,14:00,NORTHERN,"ARREST, BOOKED",100 Block of LARKIN ST,"(37.7791387543353, -122.416607695115)",1.61E+13,37.77913875,-122.4166077
160930878,ASSAULT,Tuesday,11/15/2016,15:06,INGLESIDE,NONE,2700 Block of DIAMOND ST,"(37.7347861527161, -122.433850481856)",1.61E+13,37.73478615,-122.4338505
160930931,ASSAULT,Tuesday,11/15/2016,15:09,RICHMOND,"ARREST, BOOKED",3100 Block of GEARY BL,"(37.781666769298, -122.452642959771)",1.61E+13,37.78166677,-122.452643
160930981,ASSAULT,Tuesday,11/15/2016,15:10,MISSION,NONE,200 Block of DORLAND ST,"(37.7620293003384, -122.429567892224)",1.61E+13,37.7620293,-122.4295679
160930981,ASSAULT,Tuesday,11/15/2016,15:10,MISSION,NONE,200 Block of DORLAND ST,"(37.7620293003384, -122.429567892224)",1.61E+13,37.7620293,-122.4295679
160930981,ASSAULT,Tuesday,11/15/2016,15:10,MISSION,NONE,200 Block of DORLAND ST,"(37.7620293003384, -122.429567892224)",1.61E+13,37.7620293,-122.4295679
160931105,ASSAULT,Tuesday,11/15/2016,15:45,SOUTHERN,"ARREST, BOOKED",400 Block of BERRY ST,"(37.7720161231813, -122.3982226939)",1.61E+13,37.77201612,-122.3982227
160931111,ASSAULT,Tuesday,11/15/2016,15:48,PARK,"ARREST, BOOKED",700 Block of STANYAN ST,"(37.7687142722405, -122.453376250788)",1.61E+13,37.76871427,-122.4533763
160931246,ASSAULT,Tuesday,11/15/2016,16:09,INGLESIDE,NONE,700 Block of PORTOLA DR,"(37.7442209162424, -122.453725754435)",1.61E+13,37.74422092,-122.4537258
160931666,ASSAULT,Tuesday,11/15/2016,19:45,BAYVIEW,"ARREST, BOOKED",1100 Block of OAKDALE AV,"(37.7298874272325, -122.382192583973)",1.61E+13,37.72988743,-122.3821926
160931666,ASSAULT,Tuesday,11/15/2016,19:45,BAYVIEW,"ARREST, BOOKED",1100 Block of OAKDALE AV,"(37.7298874272325, -122.382192583973)",1.61E+13,37.72988743,-122.3821926
160931672,ASSAULT,Tuesday,11/15/2016,19:55,MISSION,NONE,600 Block of CHURCH ST,"(37.7600871873775, -122.428309267889)",1.61E+13,37.76008719,-122.4283093
160931917,ASSAULT,Tuesday,11/15/2016,19:51,TENDERLOIN,NONE,200 Block of TURK ST,"(37.7829514828801, -122.413259498719)",1.61E+13,37.78295148,-122.4132595
160931951,ASSAULT,Tuesday,11/15/2016,21:20,NORTHERN,"ARREST, BOOKED",1200 Block of TURK ST,"(37.7808642652455, -122.428818526724)",1.61E+13,37.78086427,-122.4288185
160931951,ASSAULT,Tuesday,11/15/2016,21:20,NORTHERN,"ARREST, BOOKED",1200 Block of TURK ST,"(37.7808642652455, -122.428818526724)",1.61E+13,37.78086427,-122.4288185
160931951,ASSAULT,Tuesday,11/15/2016,21:20,NORTHERN,"ARREST, BOOKED",1200 Block of TURK ST,"(37.7808642652455, -122.428818526724)",1.61E+13,37.78086427,-122.4288185
160932084,ASSAULT,Tuesday,11/15/2016,23:43,SOUTHERN,NONE,SOUTH VAN NESS AV / HOWARD ST,"(37.7704071637725, -122.417612835958)",1.61E+13,37.77040716,-122.4176128
160932119,ASSAULT,Wednesday,11/16/2016,0:08,BAYVIEW,NONE,EVANS AV / NAPOLEON ST,"(37.7472622922066, -122.396010154384)",1.61E+13,37.74726229,-122.3960102
160932216,ASSAULT,Wednesday,11/16/2016,0:30,CENTRAL,"ARREST, BOOKED",800 Block of GEARY ST,"(37.7861493947594, -122.417273344939)",1.61E+13,37.78614939,-122.4172733
160932238,ASSAULT,Tuesday,11/15/2016,7:30,TENDERLOIN,NONE,100 Block of EDDY ST,"(37.7842973843312, -122.410157073911)",1.61E+13,37.78429738,-122.4101571
160932573,ASSAULT,Wednesday,11/16/2016,8:02,NORTHERN,NONE,600 Block of EDDY ST,"(37.7831498978211, -122.418360181974)",1.61E+13,37.7831499,-122.4183602
160932595,ASSAULT,Wednesday,11/16/2016,8:00,BAYVIEW,NONE,1200 Block of REVERE AV,"(37.7280102316098, -122.383599364346)",1.61E+13,37.72801023,-122.3835994
160932727,ASSAULT,Tuesday,11/15/2016,15:37,NORTHERN,"ARREST, BOOKED",400 Block of HAIGHT ST,"(37.7722642986091, -122.429644614552)",1.61E+13,37.7722643,-122.4296446
160932733,ASSAULT,Wednesday,11/16/2016,9:15,CENTRAL,NONE,COLUMBUS AV / UNION ST,"(37.8003148241057, -122.410208370518)",1.61E+13,37.80031482,-122.4102084
160932846,ASSAULT,Wednesday,11/16/2016,8:56,BAYVIEW,NONE,3RD ST / REVERE AV,"(37.7324323864471, -122.391522893042)",1.61E+13,37.73243239,-122.3915229
160932846,ASSAULT,Wednesday,11/16/2016,8:56,BAYVIEW,NONE,3RD ST / REVERE AV,"(37.7324323864471, -122.391522893042)",1.61E+13,37.73243239,-122.3915229
160933468,ASSAULT,Wednesday,11/16/2016,12:35,RICHMOND,"ARREST, BOOKED",800 Block of 47TH AV,"(37.772411893408, -122.50774902863)",1.61E+13,37.77241189,-122.507749
160933509,ASSAULT,Wednesday,11/16/2016,12:42,NORTHERN,"ARREST, BOOKED",700 Block of GOLDEN GATE AV,"(37.7806600950548, -122.42291369529)",1.61E+13,37.7806601,-122.4229137
160933543,ASSAULT,Wednesday,11/16/2016,11:35,PARK,JUVENILE BOOKED,0 Block of VEGA ST,"(37.7801242878056, -122.445893581212)",1.61E+13,37.78012429,-122.4458936
160933628,ASSAULT,Tuesday,11/15/2016,22:00,NORTHERN,"ARREST, BOOKED",600 Block of TURK ST,"(37.782008780606, -122.419820628063)",1.61E+13,37.78200878,-122.4198206
160933628,ASSAULT,Tuesday,11/15/2016,22:00,NORTHERN,"ARREST, BOOKED",600 Block of TURK ST,"(37.782008780606, -122.419820628063)",1.61E+13,37.78200878,-122.4198206
160933656,ASSAULT,Wednesday,11/16/2016,13:25,INGLESIDE,NONE,0 Block of PHELAN AV,"(37.7256933575703, -122.452289660492)",1.61E+13,37.72569336,-122.4522897
160933719,ASSAULT,Wednesday,11/16/2016,8:35,SOUTHERN,NONE,0 Block of GOUGH ST,"(37.7720959505412, -122.420657325498)",1.61E+13,37.77209595,-122.4206573
160933800,ASSAULT,Wednesday,11/16/2016,14:06,MISSION,"ARREST, BOOKED",0 Block of FORD ST,"(37.7619422381099, -122.431766025715)",1.61E+13,37.76194224,-122.431766
160933957,ASSAULT,Wednesday,11/16/2016,15:20,TARAVAL,NONE,WINSTON DR / 19TH AV,"(37.7269905309861, -122.474899151688)",1.61E+13,37.72699053,-122.4748992
160934018,ASSAULT,Wednesday,11/16/2016,14:25,RICHMOND,"ARREST, BOOKED",800 Block of LA PLAYA ST,"(37.7723131976814, -122.509895418239)",1.61E+13,37.7723132,-122.5098954
160934030,ASSAULT,Wednesday,11/16/2016,15:10,SOUTHERN,"ARREST, BOOKED",0 Block of 6TH ST,"(37.781526271747, -122.40950430935)",1.61E+13,37.78152627,-122.4095043
160934074,ASSAULT,Wednesday,11/16/2016,14:35,BAYVIEW,NONE,HUDSON AV / WHITNEYYOUNG CR,"(37.7336324732528, -122.382280587597)",1.61E+13,37.73363247,-122.3822806
160934080,ASSAULT,Wednesday,11/16/2016,15:40,BAYVIEW,NONE,3RD ST / PALOU AV,"(37.7340152180723, -122.390971734551)",1.61E+13,37.73401522,-122.3909717
160934438,ASSAULT,Wednesday,11/16/2016,12:00,SOUTHERN,NONE,HARRISON ST / FREMONT ST,"(37.7867658932764, -122.392055370759)",1.61E+13,37.78676589,-122.3920554
160934513,ASSAULT,Wednesday,11/16/2016,17:34,CENTRAL,NONE,0 Block of CALIFORNIA ST,"(37.7936404234689, -122.397010347798)",1.61E+13,37.79364042,-122.3970103
160934535,ASSAULT,Wednesday,11/16/2016,18:15,SOUTHERN,NONE,400 Block of STEVENSON ST,"(37.7825859895625, -122.408560037296)",1.61E+13,37.78258599,-122.40856
160934535,ASSAULT,Wednesday,11/16/2016,18:15,SOUTHERN,NONE,400 Block of STEVENSON ST,"(37.7825859895625, -122.408560037296)",1.61E+13,37.78258599,-122.40856
160934717,ASSAULT,Tuesday,11/15/2016,14:00,PARK,NONE,100 Block of GRATTAN ST,"(37.7639870852471, -122.450346057833)",1.61E+13,37.76398709,-122.4503461
160934789,ASSAULT,Wednesday,11/16/2016,18:37,TARAVAL,"ARREST, BOOKED",100 Block of CAMBON DR,"(37.7166569724342, -122.474170989826)",1.61E+13,37.71665697,-122.474171
160934795,ASSAULT,Wednesday,11/16/2016,18:36,INGLESIDE,NONE,1100 Block of RUSSIA AV,"(37.7172318611699, -122.427928246191)",1.61E+13,37.71723186,-122.4279282
160934795,ASSAULT,Wednesday,11/16/2016,18:36,INGLESIDE,NONE,1100 Block of RUSSIA AV,"(37.7172318611699, -122.427928246191)",1.61E+13,37.71723186,-122.4279282
160934842,ASSAULT,Wednesday,11/16/2016,19:05,TARAVAL,"ARREST, BOOKED",1000 Block of LINCOLN WY,"(37.7657044231319, -122.469121961126)",1.61E+13,37.76570442,-122.469122
160934842,ASSAULT,Wednesday,11/16/2016,19:05,TARAVAL,"ARREST, BOOKED",1000 Block of LINCOLN WY,"(37.7657044231319, -122.469121961126)",1.61E+13,37.76570442,-122.469122
160934905,ASSAULT,Wednesday,11/16/2016,19:40,MISSION,"ARREST, BOOKED",500 Block of SOUTH VAN NESS AV,"(37.764357751686, -122.41747701285)",1.61E+13,37.76435775,-122.417477
160934927,ASSAULT,Wednesday,11/16/2016,18:46,CENTRAL,NONE,600 Block of CLAY ST,"(37.7945033816358, -122.403972700548)",1.61E+13,37.79450338,-122.4039727
160935016,ASSAULT,Wednesday,11/16/2016,20:45,CENTRAL,"ARREST, BOOKED",GRANT AV / UNION ST,"(37.8006374058088, -122.407589113638)",1.61E+13,37.80063741,-122.4075891
160935072,ASSAULT,Wednesday,11/16/2016,14:45,TARAVAL,NONE,JUDAH ST / 27TH AV,"(37.7622671733047, -122.464041427693)",1.61E+13,37.76226717,-122.4640414
160935442,ASSAULT,Thursday,11/17/2016,0:42,MISSION,NONE,400 Block of CASTRO ST,"(37.7617677182954, -122.435012093789)",1.61E+13,37.76176772,-122.4350121
160935527,ASSAULT,Thursday,11/17/2016,0:50,TARAVAL,"ARREST, BOOKED",0 Block of JOSEPHA AV,"(37.7167060809755, -122.477540720349)",1.61E+13,37.71670608,-122.4775407
160935549,ASSAULT,Thursday,11/17/2016,2:16,INGLESIDE,NONE,1600 Block of SUNNYDALE AV,"(37.7121502932531, -122.417144802399)",1.61E+13,37.71215029,-122.4171448
160935599,ASSAULT,Thursday,11/17/2016,2:25,BAYVIEW,"ARREST, BOOKED",0 Block of HARBOR RD,"(37.7323807302226, -122.378268018481)",1.61E+13,37.73238073,-122.378268
160936070,ASSAULT,Monday,11/14/2016,10:00,PARK,NONE,300 Block of LAGUNAHONDA BL,"(37.7481554692332, -122.458680189782)",1.61E+13,37.74815547,-122.4586802
160936070,ASSAULT,Monday,11/14/2016,10:00,PARK,NONE,300 Block of LAGUNAHONDA BL,"(37.7481554692332, -122.458680189782)",1.61E+13,37.74815547,-122.4586802
160936086,ASSAULT,Thursday,11/17/2016,3:10,CENTRAL,NONE,2300 Block of MASON ST,"(37.8049261855739, -122.413404052102)",1.61E+13,37.80492619,-122.4134041
160936105,ASSAULT,Thursday,11/17/2016,7:45,INGLESIDE,NONE,CORTLAND AV / ELLSWORTH ST,"(37.7388808902985, -122.414561303897)",1.61E+13,37.73888089,-122.4145613
160936246,ASSAULT,Wednesday,11/9/2016,12:45,BAYVIEW,NONE,400 Block of MANSELL ST,"(37.7204106184752, -122.406079770608)",1.61E+13,37.72041062,-122.4060798
160936456,ASSAULT,Thursday,11/17/2016,11:45,SOUTHERN,JUVENILE BOOKED,900 Block of MARKET ST,"(37.7828276498838, -122.409708423721)",1.61E+13,37.78282765,-122.4097084
160936456,ASSAULT,Thursday,11/17/2016,11:45,SOUTHERN,JUVENILE BOOKED,900 Block of MARKET ST,"(37.7828276498838, -122.409708423721)",1.61E+13,37.78282765,-122.4097084
160936519,ASSAULT,Thursday,11/17/2016,9:00,INGLESIDE,NONE,900 Block of GENEVA AV,"(37.7163046735122, -122.440593031551)",1.61E+13,37.71630467,-122.440593
160936525,ASSAULT,Thursday,11/17/2016,11:50,TARAVAL,NONE,700 Block of TARAVAL ST,"(37.7431744969963, -122.474102710416)",1.61E+13,37.7431745,-122.4741027
160936569,ASSAULT,Thursday,11/17/2016,10:55,NORTHERN,"ARREST, BOOKED",0 Block of SANCHEZ ST,"(37.7684539072982, -122.431342864403)",1.61E+13,37.76845391,-122.4313429
160936688,ASSAULT,Wednesday,11/16/2016,16:15,CENTRAL,NONE,900 Block of POWELL ST,"(37.7934286229218, -122.409390517289)",1.61E+13,37.79342862,-122.4093905
160936804,ASSAULT,Wednesday,11/16/2016,21:00,MISSION,NONE,4100 Block of 18TH ST,"(37.760801062884, -122.435563016294)",1.61E+13,37.76080106,-122.435563
160936989,ASSAULT,Thursday,11/17/2016,3:45,NORTHERN,NONE,0 Block of ROSE ST,"(37.7736412159642, -122.421701514338)",1.61E+13,37.77364122,-122.4217015
160937084,ASSAULT,Thursday,11/17/2016,13:30,MISSION,NONE,2600 Block of 17TH ST,"(37.7644227955811, -122.409408330008)",1.61E+13,37.7644228,-122.4094083
160937147,ASSAULT,Thursday,11/10/2016,13:30,SOUTHERN,NONE,100 Block of 6TH ST,"(37.7799892619986, -122.407376463936)",1.61E+13,37.77998926,-122.4073765
160937250,ASSAULT,Saturday,11/12/2016,12:00,NORTHERN,NONE,1300 Block of WEBSTER ST,"(37.7830295716044, -122.431046366089)",1.61E+13,37.78302957,-122.4310464
160937266,ASSAULT,Thursday,11/17/2016,15:10,PARK,NONE,1100 Block of FELL ST,"(37.77411288367, -122.436780418339)",1.61E+13,37.77411288,-122.4367804
160937335,ASSAULT,Thursday,11/17/2016,15:25,SOUTHERN,"ARREST, BOOKED",300 Block of 2ND ST,"(37.7852582857699, -122.396251395987)",1.61E+13,37.78525829,-122.3962514
160937614,ASSAULT,Thursday,11/17/2016,17:35,TENDERLOIN,NONE,100 Block of EDDY ST,"(37.7841889075267, -122.410135236377)",1.61E+13,37.78418891,-122.4101352
160937733,ASSAULT,Thursday,11/17/2016,16:41,MISSION,NONE,700 Block of CASTRO ST,"(37.7564744901722, -122.434651755527)",1.61E+13,37.75647449,-122.4346518
160937777,ASSAULT,Thursday,11/17/2016,18:30,INGLESIDE,NONE,GENEVA AV / MISSION ST,"(37.7164586830811, -122.441018108888)",1.61E+13,37.71645868,-122.4410181
160937846,ASSAULT,Wednesday,11/16/2016,15:00,BAYVIEW,NONE,700 Block of SAN BRUNO AV,"(37.760130593169, -122.405102302871)",1.61E+13,37.76013059,-122.4051023
160938214,ASSAULT,Thursday,11/17/2016,20:35,MISSION,"ARREST, BOOKED",2100 Block of MARKET ST,"(37.7668305229582, -122.430018655242)",1.61E+13,37.76683052,-122.4300187
160938214,ASSAULT,Thursday,11/17/2016,20:35,MISSION,"ARREST, BOOKED",2100 Block of MARKET ST,"(37.7668305229582, -122.430018655242)",1.61E+13,37.76683052,-122.4300187
160938355,ASSAULT,Thursday,11/17/2016,19:00,MISSION,NONE,1100 Block of CAPP ST,"(37.7485564932535, -122.417459004992)",1.61E+13,37.74855649,-122.417459
160938543,ASSAULT,Thursday,11/17/2016,0:18,RICHMOND,NONE,3500 Block of CALIFORNIA ST,"(37.7864601412645, -122.452586938656)",1.61E+13,37.78646014,-122.4525869
160938543,ASSAULT,Thursday,11/17/2016,0:18,RICHMOND,NONE,3500 Block of CALIFORNIA ST,"(37.7864601412645, -122.452586938656)",1.61E+13,37.78646014,-122.4525869
160938684,ASSAULT,Thursday,11/17/2016,22:15,CENTRAL,"ARREST, BOOKED",0 Block of NOBLES AL,"(37.8010318212081, -122.407383979485)",1.61E+13,37.80103182,-122.407384
160938684,ASSAULT,Thursday,11/17/2016,22:15,CENTRAL,"ARREST, BOOKED",0 Block of NOBLES AL,"(37.8010318212081, -122.407383979485)",1.61E+13,37.80103182,-122.407384
160938703,ASSAULT,Friday,11/18/2016,0:30,SOUTHERN,NONE,1100 Block of MARKET ST,"(37.7796660426062, -122.41371122073)",1.61E+13,37.77966604,-122.4137112
160938753,ASSAULT,Friday,11/18/2016,0:42,INGLESIDE,"ARREST, BOOKED",200 Block of BOSWORTH ST,"(37.7333776547173, -122.42899100679)",1.61E+13,37.73337765,-122.428991
160938769,ASSAULT,Friday,11/18/2016,0:19,SOUTHERN,"ARREST, BOOKED",300 Block of BERRY ST,"(37.7731734400875, -122.396759086061)",1.61E+13,37.77317344,-122.3967591
160938769,ASSAULT,Friday,11/18/2016,0:19,SOUTHERN,"ARREST, BOOKED",300 Block of BERRY ST,"(37.7731734400875, -122.396759086061)",1.61E+13,37.77317344,-122.3967591
160938844,ASSAULT,Friday,11/18/2016,1:40,TARAVAL,NONE,4100 Block of NORIEGA ST,"(37.7527946244713, -122.507993743835)",1.61E+13,37.75279462,-122.5079937
160938913,ASSAULT,Friday,11/18/2016,2:52,TENDERLOIN,NONE,GOLDEN GATE AV / HYDE ST,"(37.7816542806076, -122.415508242782)",1.61E+13,37.78165428,-122.4155082
160939290,ASSAULT,Wednesday,11/16/2016,18:00,NORTHERN,NONE,1000 Block of POLK ST,"(37.786137125238, -122.419858277339)",1.61E+13,37.78613713,-122.4198583
160939472,ASSAULT,Friday,11/18/2016,10:09,NORTHERN,NONE,1400 Block of FILLMORE ST,"(37.7828388666355, -122.432544280591)",1.61E+13,37.78283887,-122.4325443
160939676,ASSAULT,Monday,11/14/2016,9:20,NORTHERN,NONE,ELLIS ST / POLK ST,"(37.7840280452032, -122.419366294797)",1.61E+13,37.78402805,-122.4193663
160939682,ASSAULT,Friday,11/11/2016,20:00,BAYVIEW,NONE,2000 Block of JENNINGS ST,"(37.7273813548051, -122.388452942063)",1.61E+13,37.72738135,-122.3884529
160939751,ASSAULT,Friday,11/18/2016,11:52,MISSION,NONE,2300 Block of MISSION ST,"(37.7594144253287, -122.419196838603)",1.61E+13,37.75941443,-122.4191968
160939949,ASSAULT,Thursday,11/17/2016,14:00,MISSION,NONE,600 Block of VALENCIA ST,"(37.7627436601147, -122.421747650463)",1.61E+13,37.76274366,-122.4217477
160939977,ASSAULT,Wednesday,11/16/2016,13:10,INGLESIDE,NONE,0 Block of SGTJOHNVYOUNG LN,"(37.7249307267936, -122.444707063455)",1.61E+13,37.72493073,-122.4447071
160940156,ASSAULT,Friday,11/18/2016,13:20,MISSION,NONE,2200 Block of MARKET ST,"(37.7651107322703, -122.432198022433)",1.61E+13,37.76511073,-122.432198
160940225,ASSAULT,Thursday,11/17/2016,8:45,MISSION,"ARREST, BOOKED",5000 Block of DIAMONDHEIGHTS BL,"(37.7466063701183, -122.442785848189)",1.61E+13,37.74660637,-122.4427858
160940225,ASSAULT,Thursday,11/17/2016,8:45,MISSION,"ARREST, BOOKED",5000 Block of DIAMONDHEIGHTS BL,"(37.7466063701183, -122.442785848189)",1.61E+13,37.74660637,-122.4427858
160940297,ASSAULT,Friday,11/18/2016,14:00,SOUTHERN,"ARREST, BOOKED",OTIS ST / BRADY ST,"(37.7723019786801, -122.419672336594)",1.61E+13,37.77230198,-122.4196723
160940338,ASSAULT,Friday,11/18/2016,14:00,CENTRAL,NONE,900 Block of POST ST,"(37.787277154617, -122.416825199786)",1.61E+13,37.78727715,-122.4168252
160940372,ASSAULT,Friday,11/18/2016,14:20,MISSION,NONE,20TH ST / MISSION ST,"(37.7586324051562, -122.419052694349)",1.61E+13,37.75863241,-122.4190527
160940491,ASSAULT,Friday,11/18/2016,14:45,PARK,NONE,CASTRO ST / 14TH ST,"(37.7673273452883, -122.435627378155)",1.61E+13,37.76732735,-122.4356274
160940554,ASSAULT,Wednesday,11/2/2016,19:30,RICHMOND,NONE,3400 Block of SACRAMENTO ST,"(37.7879239199513, -122.449506546565)",1.61E+13,37.78792392,-122.4495065
160940902,ASSAULT,Friday,11/18/2016,16:00,BAYVIEW,NONE,1100 Block of CONNECTICUT ST,"(37.7517298311377, -122.396528521452)",1.61E+13,37.75172983,-122.3965285
160941029,ASSAULT,Friday,11/18/2016,17:35,MISSION,"ARREST, BOOKED",3700 Block of 18TH ST,"(37.7614118083919, -122.427242380192)",1.61E+13,37.76141181,-122.4272424
160941029,ASSAULT,Friday,11/18/2016,17:35,MISSION,"ARREST, BOOKED",3700 Block of 18TH ST,"(37.7614118083919, -122.427242380192)",1.61E+13,37.76141181,-122.4272424
160941041,ASSAULT,Friday,11/18/2016,17:47,SOUTHERN,"ARREST, BOOKED",400 Block of 7TH ST,"(37.7745529324018, -122.405187364125)",1.61E+13,37.77455293,-122.4051874
160941041,ASSAULT,Friday,11/18/2016,17:47,SOUTHERN,"ARREST, BOOKED",400 Block of 7TH ST,"(37.7745529324018, -122.405187364125)",1.61E+13,37.77455293,-122.4051874
160941085,ASSAULT,Friday,11/18/2016,18:02,SOUTHERN,NONE,700 Block of MARKET ST,"(37.7871160984672, -122.403919148357)",1.61E+13,37.7871161,-122.4039191
160941182,ASSAULT,Friday,11/18/2016,18:15,CENTRAL,"ARREST, BOOKED",900 Block of POST ST,"(37.787063186215, -122.417634160005)",1.61E+13,37.78706319,-122.4176342
160941217,ASSAULT,Friday,11/18/2016,18:30,SOUTHERN,NONE,0 Block of THE EMBARCADERONORTH ST,"(37.7833631726076, -122.38791460114)",1.61E+13,37.78336317,-122.3879146
160941273,ASSAULT,Friday,11/18/2016,19:09,BAYVIEW,NONE,INGALLS ST / QUESADA AV,"(37.7291138540107, -122.383995699894)",1.61E+13,37.72911385,-122.3839957
160941411,ASSAULT,Friday,11/18/2016,20:00,SOUTHERN,NONE,MARKET ST / OFARRELL ST,"(37.7867316808533, -122.404587539604)",1.61E+13,37.78673168,-122.4045875
160941461,ASSAULT,Friday,11/18/2016,18:30,SOUTHERN,"ARREST, BOOKED",800 Block of BRYANT ST,"(37.775420706711, -122.403404791479)",1.61E+13,37.77542071,-122.4034048
160941461,ASSAULT,Friday,11/18/2016,18:30,SOUTHERN,"ARREST, BOOKED",800 Block of BRYANT ST,"(37.775420706711, -122.403404791479)",1.61E+13,37.77542071,-122.4034048
160941530,ASSAULT,Friday,11/18/2016,19:00,TENDERLOIN,NONE,0 Block of HYDE ST,"(37.7792565191771, -122.414949018134)",1.61E+13,37.77925652,-122.414949
160941712,ASSAULT,Friday,11/18/2016,22:28,BAYVIEW,NONE,1000 Block of FITZGERALD AV,"(37.7192849941403, -122.388335559443)",1.61E+13,37.71928499,-122.3883356
160941734,ASSAULT,Friday,11/18/2016,22:40,RICHMOND,"ARREST, BOOKED",200 Block of 16TH AV,"(37.7833736589823, -122.475232788116)",1.61E+13,37.78337366,-122.4752328
160941740,ASSAULT,Friday,11/18/2016,22:27,SOUTHERN,"ARREST, BOOKED",MARKET ST / 7TH ST,"(37.7804777480508, -122.412515341356)",1.61E+13,37.78047775,-122.4125153
160941756,ASSAULT,Friday,11/18/2016,22:57,TARAVAL,"ARREST, BOOKED",20TH AV / TARAVAL ST,"(37.7430015617463, -122.476763739953)",1.61E+13,37.74300156,-122.4767637
160941784,ASSAULT,Friday,11/18/2016,23:16,TENDERLOIN,"ARREST, BOOKED",500 Block of ELLIS ST,"(37.784689282473, -122.414615262229)",1.61E+13,37.78468928,-122.4146153
160941994,ASSAULT,Saturday,11/19/2016,1:00,MISSION,"ARREST, BOOKED",3000 Block of 16TH ST,"(37.7648758178404, -122.421662616877)",1.61E+13,37.76487582,-122.4216626
160942124,ASSAULT,Saturday,11/19/2016,2:31,MISSION,NONE,3400 Block of 19TH ST,"(37.7602652229581, -122.419623543912)",1.61E+13,37.76026522,-122.4196235
160942174,ASSAULT,Saturday,11/19/2016,2:56,INGLESIDE,"ARREST, BOOKED",800 Block of RUTLAND ST,"(37.7120275326626, -122.407743267152)",1.61E+13,37.71202753,-122.4077433
160942215,ASSAULT,Saturday,11/19/2016,3:33,NORTHERN,"ARREST, BOOKED",1100 Block of LAGUNA ST,"(37.7818107490445, -122.427415796369)",1.61E+13,37.78181075,-122.4274158
160942312,ASSAULT,Saturday,11/19/2016,6:15,BAYVIEW,"ARREST, BOOKED",INDUSTRIAL ST / BARNEVELD AV,"(37.7387127054982, -122.404259582016)",1.61E+13,37.73871271,-122.4042596
160942431,ASSAULT,Saturday,11/19/2016,7:59,CENTRAL,"ARREST, BOOKED",1100 Block of GRANT AV,"(37.7971765677058, -122.406954465276)",1.61E+13,37.79717657,-122.4069545
160942431,ASSAULT,Saturday,11/19/2016,7:59,CENTRAL,"ARREST, BOOKED",1100 Block of GRANT AV,"(37.7971765677058, -122.406954465276)",1.61E+13,37.79717657,-122.4069545
160942500,ASSAULT,Saturday,11/19/2016,8:22,BAYVIEW,"ARREST, BOOKED",5100 Block of 3RD ST,"(37.7312196259945, -122.39180699384)",1.61E+13,37.73121963,-122.391807
160942572,ASSAULT,Saturday,11/19/2016,2:00,INGLESIDE,NONE,0 Block of BLYTHDALE AV,"(37.7107672954351, -122.417678812123)",1.61E+13,37.7107673,-122.4176788
160942572,ASSAULT,Saturday,11/19/2016,2:00,INGLESIDE,NONE,0 Block of BLYTHDALE AV,"(37.7107672954351, -122.417678812123)",1.61E+13,37.7107673,-122.4176788
160942710,ASSAULT,Saturday,11/19/2016,9:45,MISSION,"ARREST, BOOKED",500 Block of SOUTH VAN NESS AV,"(37.764357751686, -122.41747701285)",1.61E+13,37.76435775,-122.417477
160942782,ASSAULT,Thursday,11/17/2016,18:00,MISSION,NONE,2300 Block of 16TH ST,"(37.7657184395282, -122.409529913278)",1.61E+13,37.76571844,-122.4095299
160942867,ASSAULT,Saturday,11/19/2016,11:45,BAYVIEW,"ARREST, BOOKED",3800 Block of 3RD ST,"(37.7422600519555, -122.387939452192)",1.61E+13,37.74226005,-122.3879395
160942873,ASSAULT,Saturday,11/19/2016,10:00,BAYVIEW,"ARREST, BOOKED",0 Block of LASVILLAS CT,"(37.733551160888, -122.385750644723)",1.61E+13,37.73355116,-122.3857506
160942873,ASSAULT,Saturday,11/19/2016,10:00,BAYVIEW,"ARREST, BOOKED",0 Block of LASVILLAS CT,"(37.733551160888, -122.385750644723)",1.61E+13,37.73355116,-122.3857506
160942895,ASSAULT,Saturday,11/19/2016,12:05,TENDERLOIN,"ARREST, BOOKED",MARKET ST / HYDE ST,"(37.778719262789, -122.414743835382)",1.61E+13,37.77871926,-122.4147438
160943138,ASSAULT,Saturday,11/19/2016,13:00,SOUTHERN,NONE,800 Block of BRYANT ST,"(37.775420706711, -122.403404791479)",1.61E+13,37.77542071,-122.4034048
160943382,ASSAULT,Thursday,11/17/2016,20:00,CENTRAL,NONE,0 Block of MONTGOMERY ST,"(37.7895797011957, -122.402025244971)",1.61E+13,37.7895797,-122.4020252
